     2.11           OBSERVATION DATA    M (MIXED)           RINEX VERSION / TYPE
teqc  2015Nov6                          20220616 21:08:08UTCPGM / RUN BY / DATE
-Unknown-           -Unknown-                               OBSERVER / AGENCY
log0525b                                                    MARKER NAME
03AEL9E3DRV2B21YCKQKJAVAD TRIUMPH2      3.7.2 Aug,31,2017   REC # / TYPE / VERS
  4475697.4519  3087497.1033  3323133.5807                  APPROX POSITION XYZ
-Unknown-                                                   ANT # / TYPE
        0.0000        0.0000        0.0000                  ANTENNA: DELTA H/E/N
     1     1                                                WAVELENGTH FACT L1/2
     4    C1    L1    L2    P2                              # / TYPES OF OBSERV
     1.0000                                                 INTERVAL
    18                                                      LEAP SECONDS
File edited with WinTEQC                                    COMMENT
teqc edited: all GLONASS satellites excluded                COMMENT
teqc edited: all SBAS satellites excluded                   COMMENT
teqc edited: all Galileo satellites excluded                COMMENT
  2022     5    25    11    59    3.0000000     GPS         TIME OF FIRST OBS
MSXP|IAx86-PII|bcc32 5.0|MSWin95->XP|486/DX+                COMMENT
Justin v.2.124.163.2JAVAD GNSS          20220529 125509 UTC COMMENT
                                                            END OF HEADER
 22  5 25 11 59  3.0000000  0  9G10G13G15G16G18G23G26G27G29
  21823498.877   114683269.800 6  89363587.056 6  21823506.507
  25350536.541
  23371440.707   122817755.096 5  95702148.267 5  23371447.247
  22019173.966   115711539.975 5  90164837.818 5  22019176.766
  21299844.567
  20458368.389   107509452.583 5  83773599.548 5  20458370.709
  21235763.225   111594697.701 6  86956908.616 6  21235770.985
  23712388.302
  22618095.438
 22  5 25 11 59  4.0000000  0  9G10G13G15G16G18G23G26G27G29
  21823008.812   114680694.008 5  89361579.965 5  21823015.832
  25350544.809
  23371310.531   122817071.168 5  95701615.352 5  23371316.861
  22018881.713   115710002.947 5  90163640.169 5  22018885.423
  21300114.857
  20458219.524   107508671.579 5  83772990.990 5  20458222.014
  21235876.451   111595290.626 6  86957370.574 6  21235883.741
  23711818.166
  22618466.387   118860847.766 4  92618843.425 4  22618470.957
 22  5 25 11 59  5.0000000  0  9G10G13G15G16G18G23G26G27G29
  21822519.449   114678118.862 6  89359573.362 6  21822526.179
  25350551.234
  23371181.234   122816388.044 3  95701083.138 3  23371187.294
  22018589.206   115708466.821 5  90162443.183 5  22018592.826
  21300385.396
  20458070.851   107507891.402 5  83772383.083 5  20458073.561
  21235989.343   111595884.345 6  86957833.213 6  21235996.813
  23711247.367
  22618837.191   118862795.459 4  92620361.113 4  22618842.901
 22  5 25 11 59  6.0000000  0  9G10G13G15G16G18G23G26G27G29
  21822029.223   114675544.161 6  89357567.090 6  21822036.023
  25350558.432
  23371050.803   122815705.444 5  95700551.248 5  23371057.243
  22018295.979   115706931.256 5  90161246.622 5  22018299.879
  21300655.545   111935705.953 5  87222628.126 5  21300655.875
  20457922.763   107507111.869 5  83771775.642 5  20457925.613
  21236102.785   111596478.700 6  86958296.334 6  21236109.905
  23710676.376
  22619206.565   118864743.336 5  92621878.928 5  22619213.275
 22  5 25 11 59  7.0000000  0  9G10G13G15G16G18G23G26G27G29
  21821539.155   114672970.018 6  89355561.275 6  21821546.135
  25350566.592
  23370920.627   122815023.572 5  95700019.928 5  23370926.847
  22018004.173   115705396.424 5  90160050.656 5  22018007.973
  21300926.327   111937126.898 5  87223735.352 5  21300930.967
  20457774.539   107506333.099 5  83771168.803 5  20457776.999
  21236215.801   111597073.774 6  86958760.035 6  21236223.001
  23710105.535
  22619577.630   118866691.673 5  92623397.132 5  22619584.080
 22  5 25 11 59  8.0000000  0  9G10G13G15G16G18G23G26G27G29
  21821049.894   114670396.488 6  89353555.940 6  21821056.374
  25350575.304
  23370790.712   122814342.470 5  95699489.186 5  23370797.372
  22017712.514   115703862.910 5  90158854.826 5  22017716.024
  21301196.910   111938547.730 5  87224843.379 5  21301201.110
  20457626.682   107505555.150 5  83770562.616 5  20457628.972
  21236329.422   111597669.686 6  86959224.375 6  21236336.212
  23709534.410
  22619948.090   118868640.546 5  92624915.728 5  22619954.480
 22  5 25 11 59  9.0000000  0  9G10G13G15G16G18G23G26G27G29
  21820560.024   114667823.394 6  89351550.941 6  21820566.474
  25350581.540
  23370661.454   122813661.917 5  95698958.886 5  23370668.254
  22017420.258   115702329.493 5  90157659.945 5  22017424.238
  21301467.917   111939969.220 5  87225951.036 5  21301471.917
  20457478.183   107504777.854 5  83769956.926 5  20457480.933
  21236443.019   111598266.197 6  86959689.180 6  21236449.959
  23708963.734   124591450.842 4  97084246.951 4  23708974.554
  22620319.829   118870589.699 5  92626434.539 5  22620325.219
 22  5 25 11 59 10.0000000  0  9G10G13G15G16G18G23G26G27G29
  21820070.792   114665250.701 6  89349546.234 6  21820077.052
  25350590.422
  23370532.396   122812981.899 5  95698429.009 5  23370538.666
  22017128.692   115700796.593 5  90156465.508 5  22017133.172
  21301737.856   111941390.819 5  87227058.776 5  21301742.156
  20457330.688   107504001.125 5  83769351.683 5  20457333.598
  21236556.752   111598863.267 6  86960154.424 6  21236563.442
  23708392.917   124588451.977 4  97081910.188 4  23708403.427
  22620690.904   118872539.146 5  92627953.591 5  22620696.164
 22  5 25 11 59 11.0000000  0  9G10G13G15G16G18G23G26G27G29
  21819581.087   114662678.403 6  89347541.853 6  21819587.427
  25350597.809
  23370403.428   122812302.461 5  95697899.568 5  23370409.488
  22016837.417   115699264.325 5  90155271.512 5  22016840.917
  21302008.748   111942812.552 5  87228166.612 5  21302012.268
  20457183.127   107503225.018 5  83768746.927 5  20457185.387
  21236670.304   111599460.927 6  86960620.135 6  21236677.414
  23707822.463   124585453.145 4  97079573.450 4  23707833.133
  22621061.072   118874488.877 5  92629472.856 5  22621066.812
 22  5 25 11 59 12.0000000  0  9G10G13G15G16G18G23G26G27G29
  21819091.751   114660106.735 6  89345537.961 6  21819098.141
  25350606.374
  23370274.320   122811623.767 5  95697370.710 5  23370280.540
  22016545.928   115697732.846 5  90154078.147 5  22016549.218
  21302279.563   111944234.659 5  87229274.750 5  21302282.853
  20457035.716   107502449.728 5  83768142.810 5  20457038.226
  21236783.919   111600059.395 5  86961086.471 5  21236790.999
  23707251.946   124582454.540 4  97077236.854 4  23707262.446
  22621432.503   118876439.090 5  92630992.491 5  22621438.023
 22  5 25 11 59 13.0000000  0  9G10G13G15G16G18G23G26G27G29
  21818602.832   114657535.710 5  89343534.572 5  21818608.952
  25350614.610
  23370144.093   122810945.822 5  95696842.459 5  23370150.723
  22016255.118   115696202.144 5  90152885.398 5  22016257.378
  21302550.542   111945657.105 5  87230383.150 5  21302553.722
  20456888.092   107501675.284 5  83767539.343 5  20456890.492
  21236897.969   111600658.678 5  86961553.442 5  21236905.179
  23706680.410   124579456.116 4  97074900.430 4  23706690.530
  22621803.616   118878389.827 5  92632512.542 5  22621809.466
 22  5 25 11 59 14.0000000  0  9G10G13G15G16G18G23G26G27G29
  21818113.594   114654965.223 5  89341531.597 5  21818119.844
  25350621.694
  23370015.401   122810268.586 5  95696314.736 5  23370022.501
  22015963.890   115694672.165 5  90151693.209 5  22015966.510
  21302821.444   111947079.850 5  87231491.782 5  21302824.324
  20456740.696   107500901.584 5  83766936.466 5  20456743.346
  21237012.205   111601258.695 5  86962020.986 5  21237019.665
  23706110.927   124576457.856 4  97072564.111 4  23706118.827
  22622175.641   118880340.970 5  92634032.924 5  22622180.511
 22  5 25 11 59 15.0000000  0  9G10G13G15G16G18G23G26G27G29
  21817624.270   114652394.582 5  89339528.495 5  21817630.720
  25350630.589
  23369886.925   122809591.349 5  95695787.017 5  23369893.025
  22015673.131   115693142.171 5  90150501.002 5  22015675.841
  21303091.644   111948502.126 5  87232600.050 5  21303094.894
  20456593.504   107500127.912 5  83766333.605 5  20456596.404
  21237126.615   111601858.708 6  86962488.532 6  21237133.695
  23705539.451   124573459.016 4  97070227.375 4  23705548.751
  22622546.280   118882291.808 5  92635553.056 5  22622551.630
 22  5 25 11 59 16.0000000  0  9G10G13G15G16G18G23G26G27G29
  21817135.234   114649824.356 6  89337525.731 6  21817141.374
  25350641.093
  23369757.870   122808914.660 5  95695259.730 5  23369764.530
  22015380.887   115691612.800 5  90149309.278 5  22015383.877
  21303362.677   111949924.575 5  87233708.446 5  21303365.357
  20456446.267   107499354.867 5  83765731.227 5  20456449.287
  21237240.617   111602459.336 6  86962956.548 6  21237247.727
  23704968.904   124570460.211 4  97067890.653 4  23704978.184
  22622918.110   118884242.959 5  92637073.425 5  22622923.040
 22  5 25 11 59 17.0000000  0  9G10G13G15G16G18G23G26G27G29
  21816646.521   114647254.758 5  89335523.449 5  21816652.481
  25350649.772   133218557.613 1 103806669.209 1  25350649.982
  23369629.379   122808238.720 5  95694733.024 5  23369635.799
  22015090.685   115690084.210 5  90148118.176 5  22015093.855
  21303633.536   111951347.381 5  87234817.121 5  21303636.106
  20456299.513   107498582.646 5  83765129.503 5  20456302.183
  21237354.709   111603060.762 5  86963425.192 5  21237362.189
  23704398.336   124567461.608 4  97065554.083 4  23704408.276
  22623289.912   118886194.612 5  92638594.186 5  22623294.422
 22  5 25 11 59 18.0000000  0  9G10G13G15G16G18G23G26G27G29
  21816157.152   114644685.351 5  89333521.310 5  21816163.422
  25350657.462
  23369500.121   122807563.114 5  95694206.583 5  23369507.341
  22014799.592   115688555.972 5  90146927.327 5  22014802.632
  21303903.541   111952770.087 5  87235925.725 5  21303906.581
  20456152.530   107497810.797 5  83764528.062 5  20456155.070
  21237469.311   111603662.548 5  86963894.112 5  21237476.621
  23703826.484   124564462.764 4  97063217.312 4  23703837.804
  22623660.642   118888146.314 5  92640114.990 5  22623665.952
 22  5 25 11 59 19.0000000  0  8G10G15G16G18G23G26G27G29
  21815668.550   114642116.324 6  89331519.478 6  21815674.470
  23369372.001   122806888.054 5  95693680.571 5  23369378.871
  22014509.075   115687028.300 5  90145736.940 5  22014511.695
  21304173.942   111954192.927 5  87237034.433 5  21304177.462
  20456005.695   107497039.564 5  83763927.100 5  20456008.585
  21237584.371   111604264.893 5  86964363.474 5  21237591.131
  23703256.735   124561463.917 4  97060880.549 4  23703266.575
  22624033.014   118890098.285 5  92641636.001 5  22624037.284
 22  5 25 11 59 20.0000000  0  8G10G15G16G18G23G26G27G29
  21815179.507   114639547.938 5  89329518.139 5  21815185.977
  23369244.518   122806213.751 5  95693155.139 5  23369250.928
  22014218.061   115685501.425 5  90144547.180 5  22014221.621
  21304445.203   111955616.107 5  87238143.403 5  21304447.993
  20455859.528   107496269.151 5  83763326.777 5  20455862.028
  21237699.093   111604868.078 5  86964833.485 5  21237705.823
  23702685.549   124558465.305 4  97058543.972 4  23702695.179
  22624403.710   118892050.769 5  92643157.415 5  22624408.300
 22  5 25 11 59 21.0000000  0  8G10G15G16G18G23G26G27G29
  21814690.636   114636979.935 5  89327517.097 5  21814697.576
  23369115.862   122805539.985 5  95692630.127 5  23369122.992
  22013927.331   115683975.100 5  90143357.825 5  22013930.701
  21304716.192   111957039.417 5  87239252.474 5  21304719.202
  20455712.999   107495499.329 5  83762726.913 5  20455715.529
  21237814.132   111605471.812 5  86965303.926 5  21237820.792
  23702115.143   124555466.668 4  97056207.374 4  23702124.143
  22624775.714   118894003.494 5  92644679.016 5  22624780.184
 22  5 25 11 59 22.0000000  0  8G10G15G16G18G23G26G27G29
  21814201.899   114634412.525 5  89325516.518 5  21814208.819
  23368987.566   122804866.942 5  95692105.676 5  23368994.296
  22013637.309   115682449.529 5  90142169.072 5  22013640.299
  21304986.803   111958463.029 5  87240361.781 5  21304989.783
  20455566.577   107494730.294 5  83762127.661 5  20455569.637
  21237928.959   111606076.304 5  86965774.956 5  21237935.649
  23701545.184   124552468.195 4  97053870.922 4  23701553.604
  22625146.836   118895956.703 5  92646200.990 5  22625151.936
 22  5 25 11 59 23.0000000  0  8G10G15G16G18G23G26G27G29
  21813713.657   114631845.708 5  89323516.404 5  21813720.097
  23368860.352   122804194.641 5  95691581.810 5  23368866.962
  22013347.686   115680924.726 5  90140980.914 5  22013349.976
  21305257.914   111959886.977 5  87241471.347 5  21305261.184
  20455420.356   107493962.060 5  83761529.045 5  20455423.386
  21238044.490   111606681.597 5  86966246.602 5  21238051.000
  23700974.987   124549469.945 4  97051534.607 4  23700983.967
  22625517.775   118897910.384 5  92647723.333 5  22625523.655
 22  5 25 11 59 24.0000000  0  8G10G15G16G18G23G26G27G29
  21813225.385   114629279.498 5  89321516.769 5  21813231.715
  23368732.739   122803523.089 5  95691058.526 5  23368738.459
  22013057.612   115679400.683 5  90139793.357 5  22013060.132
  21305529.682   111961311.249 5  87242581.167 5  21305532.172
  20455274.039   107493194.615 5  83760931.037 5  20455277.359
  21238159.586   111607287.650 5  86966718.848 5  21238166.366
  23700403.757   124546471.847 4  97049198.440 4  23700412.727
  22625890.864   118899864.521 5  92649246.034 5  22625895.644
 22  5 25 11 59 25.0000000  0  8G10G15G16G18G23G26G27G29
  21812737.194   114626713.796 5  89319517.519 5  21812743.434
  23368605.180   122802852.185 5  95690535.747 5  23368611.500
  22012766.955   115677877.358 5  90138606.349 5  22012770.435
  21305800.430   111962735.763 5  87243691.178 5  21305803.080
  20455128.044   107492427.878 5  83760333.582 5  20455131.604
  21238275.420   111607894.390 5  86967191.630 5  21238281.880
  23699833.507   124543473.862 4  97046862.362 4  23699843.277
  22626262.666   118901819.029 5  92650769.022 5  22626267.366
 22  5 25 11 59 26.0000000  0  8G10G15G16G18G23G26G27G29
  21812248.982   114624148.578 5  89317518.651 5  21812255.452
  23368476.902   122802181.903 5  95690013.440 5  23368483.292
  22012477.505   115676354.661 5  90137419.832 5  22012480.645
  21306071.263   111964160.495 5  87244801.356 5  21306074.063
  20454982.722   107491661.849 5  83759736.668 5  20454985.252
  21238389.659   111608501.802 5  86967664.943 5  21238397.429
  23699262.447   124540475.951 4  97044526.323 4  23699273.307
  22626634.883   118903773.951 5  92652292.335 5  22626639.633
 22  5 25 11 59 27.0000000  0  8G10G15G16G18G23G26G27G29
  21811761.013   114621584.008 5  89315520.284 5  21811767.093
  23368349.187   122801512.403 5  95689491.749 5  23368355.627
  22012188.049   115674832.778 5  90136233.954 5  22012191.429
  21306342.329   111965585.583 5  87245911.817 5  21306345.399
  20454837.086   107490896.644 5  83759140.406 5  20454839.536
  21238506.209   111609110.034 5  86968138.883 5  21238513.099
  23698692.700   124537478.271 4  97042190.463 4  23698702.370
  22627006.649   118905729.352 5  92653816.015 5  22627011.669
 22  5 25 11 59 28.0000000  0  8G10G15G16G18G23G26G27G29
  21811272.843   114619020.002 5  89313522.362 5  21811279.323
  23368221.635   122800843.626 5  95688970.623 5  23368228.675
  22011898.549   115673311.618 5  90135048.640 5  22011900.849
  21306613.770   111967010.962 5  87247022.502 5  21306617.110
  20454691.899   107490132.212 5  83758544.750 5  20454694.149
  21238622.322   111609718.994 5  86968613.400 5  21238629.132
  23698122.708   124534480.772 4  97039854.769 4  23698131.578
  22627379.231   118907685.202 5  92655340.054 5  22627384.011
 22  5 25 11 59 29.0000000  0  8G10G15G16G18G23G26G27G29
  21810785.596   114616456.447 5  89311524.800 5  21810791.836
  23368094.712   122800175.447 5  95688449.962 5  23368101.392
  22011609.426   115671791.107 5  90133863.817 5  22011612.876
  21306885.388   111968436.551 5  87248133.346 5  21306887.538
  20454546.179   107489368.426 5  83757949.592 5  20454548.429
  21238738.069   111610328.609 5  86969088.423 5  21238745.079
  23697551.570   124531483.315 4  97037519.103 4  23697561.400
  22627750.839   118909641.381 5  92656864.339 5  22627755.959
 22  5 25 11 59 30.0000000  0  8G10G15G16G18G23G26G27G29
  21810297.672   114613892.846 5  89309527.181 5  21810303.742
  23367967.738   122799507.328 5  95687929.344 5  23367974.848
  22011319.754   115670270.668 5  90132679.054 5  22011322.474
  21307156.389   111969861.783 5  87249243.901 5  21307158.919
  20454400.996   107488604.776 5  83757354.543 5  20454403.296
  21238854.682   111610938.324 5  86969563.523 5  21238860.982
  23696981.764   124528485.359 4  97035183.031 4  23696990.704
  22628123.088   118911597.354 5  92658388.471 5  22628128.318
 22  5 25 11 59 31.0000000  0  8G10G15G16G18G23G26G27G29
  21809809.853   114611329.941 5  89307530.119 5  21809815.813
  23367840.428   122798840.077 5  95687409.420 5  23367847.488
  22011031.039   115668751.136 5  90131495.006 5  22011033.709
  21307427.938   111971287.476 5  87250354.839 5  21307429.888
  20454256.061   107487842.061 5  83756760.211 5  20454258.101
  21238970.093   111611548.927 5  86970039.320 5  21238977.263
  23696410.974   124525487.763 4  97032847.229 4  23696420.194
  22628495.233   118913553.940 5  92659913.079 5  22628500.243
 22  5 25 11 59 32.0000000  0  8G10G15G16G18G23G26G27G29
  21809321.797   114608767.547 5  89305533.449 5  21809328.367
  23367713.945   122798173.454 5  95686889.972 5  23367720.355
  22010741.800   115667232.271 5  90130311.484 5  22010745.330
  21307698.722   111972713.367 5  87251465.926 5  21307701.252
  20454110.206   107487080.020 5  83756166.413 5  20454113.446
  21239086.260   111612160.213 5  86970515.643 5  21239093.570
  23695840.757   124522490.212 4  97030511.482 4  23695850.047
  22628868.285   118915510.872 5  92661437.961 5  22628872.595
 22  5 25 11 59 33.0000000  0  8G10G15G16G18G23G26G27G29
  21808834.790   114606205.598 5  89303537.120 5  21808840.750
  23367587.739   122797507.419 5  95686370.983 5  23367594.069
  22010453.207   115665714.002 5  90129128.405 5  22010455.697
  21307970.418   111974139.454 5  87252577.155 5  21307973.148
  20453965.745   107486318.644 5  83755573.132 5  20453968.005
  21239202.540   111612772.120 5  86970992.449 5  21239210.130
  23695270.773   124519492.695 4  97028175.752 4  23695279.493
  22629240.682   118917468.124 5  92662963.089 5  22629245.272
 22  5 25 11 59 34.0000000  0  8G10G15G16G18G23G26G27G29
  21808346.053   114603644.196 5  89301541.263 5  21808353.333
  23367461.352   122796842.034 5  95685852.499 5  23367467.032
  22010163.899   115664196.410 5  90127945.879 5  22010166.789
  21308241.466   111975565.764 5  87253688.584 5  21308244.366
  20453820.619   107485557.970 5  83754980.401 5  20453823.999
  21239320.059   111613384.706 5  86971469.773 5  21239326.589
  23694700.247   124516495.304 4  97025840.120 4  23694708.697
  22629612.772   118919425.759 5  92664488.514 5  22629617.792
 22  5 25 11 59 35.0000000  0  8G10G15G16G18G23G26G27G29
  21807860.395   114601083.145 3  89299545.657 3  21807864.775
  23367334.132   122796177.288 5  95685334.557 5  23367340.562
  22009875.453   115662679.544 5  90126763.877 5  22009878.313
  21308513.159   111976992.331 5  87254800.176 5  21308515.979
  20453676.439   107484798.036 5  83754388.248 5  20453679.829
  21239436.366   111613997.974 5  86971947.655 5  21239443.136
  23694129.964   124513498.032 4  97023504.600 4  23694138.414
  22629986.080   118921383.847 5  92666014.308 5  22629990.270
 22  5 25 11 59 36.0000000  0  8G10G15G16G18G23G26G27G29
  21807371.743   114598523.012 3  89297550.727 3  21807378.503
  23367207.428   122795513.423 5  95684817.213 5  23367214.278
  22009586.765   115661163.475 5  90125582.550 5  22009589.665
  21308784.340   111978419.283 5  87255912.100 5  21308787.390
  20453531.963   107484038.921 5  83753796.716 5  20453534.603
  21239553.615   111614612.152 5  86972426.221 5  21239560.195
  23693559.504   124510500.940 4  97021169.227 4  23693568.384
  22630358.107   118923342.370 5  92667540.401 5  22630363.147
 22  5 25 11 59 37.0000000  0  8G10G15G16G18G23G26G27G29
  21806885.210   114595963.338 5  89295556.131 5  21806892.030
  23367081.215   122794850.261 5  95684300.483 5  23367087.515
  22009298.578   115659648.232 5  90124401.838 5  22009301.458
  21309055.838   111979846.585 5  87257024.267 5  21309059.118
  20453387.598   107483280.644 5  83753205.861 5  20453390.638
  21239669.719   111615227.084 5  86972905.407 5  21239677.149
  23692988.381   124507504.155 4  97018834.061 4  23692997.571
  22630731.502   118925301.470 5  92669066.976 5  22630736.012
 22  5 25 11 59 38.0000000  0  8G10G15G16G18G23G26G27G29
  21806398.059   114593404.343 6  89293562.131 6  21806405.299
  23366955.701   122794187.866 5  95683784.332 5  23366961.831
  22009010.723   115658133.770 5  90123221.733 5  22009013.063
  21309328.169   111981274.227 5  87258136.712 5  21309330.489
  20453243.395   107482523.194 5  83752615.640 5  20453245.975
  21239786.958   111615842.806 5  86973385.190 5  21239794.168
  23692417.733   124504507.546 4  97016499.043 4  23692427.553
  22631104.018   118927261.015 5  92670593.887 5  22631108.708
 22  5 25 11 59 39.0000000  0  8G10G15G16G18G23G26G27G29
  21805911.625   114590846.024 6  89291568.628 6  21805918.375
  23366829.438   122793526.318 5  95683268.835 5  23366836.208
  22008722.748   115656620.131 5  90122042.273 5  22008725.098
  21309599.358   111982702.271 5  87259249.474 5  21309602.408
  20453099.399   107481766.620 5  83752026.102 5  20453102.239
  21239905.167   111616459.394 5  86973865.640 5  21239911.697
  23691848.373   124501511.202 4  97014164.230 4  23691856.903
  22631477.103   118929221.168 5  92672121.271 5  22631481.673
 22  5 25 11 59 40.0000000  0  8G10G15G16G18G23G26G27G29
  21805424.878   114588288.012 6  89289575.378 6  21805431.178
  23366703.588   122792865.210 5  95682753.678 5  23366710.438
  22008434.567   115655106.976 5  90120863.198 5  22008437.867
  21309871.246   111984130.370 5  87260362.278 5  21309873.956
  20452955.885   107481010.556 5  83751436.963 5  20452958.495
  21240022.095   111617076.472 5  86974346.476 5  21240029.145
  23691278.647   124498514.778 4  97011829.351 4  23691287.647
  22631849.524   118931181.443 5  92673648.748 5  22631854.814
 22  5 25 11 59 41.0000000  0  8G10G15G16G18G23G26G27G29
  21804938.210   114585730.415 6  89287582.450 6  21804944.490
  23366578.209   122792204.653 5  95682238.965 5  23366584.459
  22008146.937   115653594.431 5  90119684.587 5  22008150.097
  21310143.350   111985558.601 5  87261475.184 5  21310145.750
  20452811.739   107480255.099 5  83750848.309 5  20452814.409
  21240139.670   111617694.150 5  86974827.784 5  21240146.880
  23690708.784   124495518.333 4  97009494.483 4  23690717.014
  22632222.939   118933142.047 5  92675176.500 5  22632227.989
 22  5 25 11 59 42.0000000  0  8G10G15G16G18G23G26G27G29
  21804451.791   114583173.178 6  89285589.798 6  21804458.081
  23366453.882   122791544.584 5  95681724.624 5  23366459.492
  22007859.070   115652082.378 5  90118506.380 5  22007862.510
  21310415.034   111986986.930 5  87262588.171 5  21310417.434
  20452668.726   107479500.229 5  83750260.093 5  20452670.976
  21240257.510   111618312.360 5  86975309.501 5  21240264.420
  23690138.198   124492521.872 4  97007159.577 4  23690147.158
  22632596.540   118935102.874 5  92676704.412 5  22632601.390
 22  5 25 11 59 43.0000000  0  8G10G15G16G18G23G26G27G29
  21803965.336   114580616.525 6  89283597.609 6  21803971.626
  23366327.411   122790885.244 5  95681210.857 5  23366333.541
  22007571.126   115650571.100 5  90117328.744 5  22007574.206
  21310686.778   111988415.548 5  87263701.380 5  21310689.828
  20452524.883   107478746.111 5  83749672.470 5  20452527.353
  21240375.394   111618931.321 5  86975791.808 5  21240382.174
  23689568.682   124489525.556 4  97004824.779 4  23689576.192
  22632968.919   118937064.159 5  92678232.680 5  22632974.389
 22  5 25 11 59 44.0000000  0  8G10G15G16G18G23G26G27G29
  21803478.734   114578060.182 6  89281605.656 6  21803484.864
  23366201.912   122790226.367 5  95680697.446 5  23366208.282
  22007283.753   115649060.277 5  90116151.490 5  22007286.333
  21310958.578   111989844.211 5  87264814.617 5  21310961.378
  20452381.972   107477992.525 5  83749085.249 5  20452384.272
  21240493.521   111619550.755 5  86976274.481 5  21240500.151
  23688998.788   124486529.165 4  97002489.935 4  23689006.278
  22633342.190   118939025.630 5  92679761.093 5  22633347.590
 22  5 25 11 59 45.0000000  0  8G10G15G16G18G23G26G27G29
  21802992.150   114575504.471 6  89279614.194 6  21802998.630
  23366077.111   122789568.260 5  95680184.639 5  23366083.131
  22006996.265   115647550.265 5  90114974.851 5  22006999.235
  21311230.835   111991273.222 5  87265928.141 5  21311233.345
  20452238.671   107477239.752 5  83748498.673 5  20452240.671
  21240611.115   111620170.998 5  86976757.781 5  21240617.955
  23688427.237   124483532.976 4  97000155.255 4  23688435.637
  22633716.253   118940987.579 5  92681289.877 5  22633721.153
 22  5 25 11 59 46.0000000  0  8G10G15G16G18G23G26G27G29
  21802506.045   114572949.144 6  89277623.032 6  21802512.465
  23365952.404   122788910.691 5  95679672.247 5  23365957.704
  22006709.021   115646040.799 5  90113798.652 5  22006712.281
  21311502.387   111992702.355 5  87267041.737 5  21311505.107
  20452095.010   107476487.572 5  83747912.561 5  20452097.700
  21240729.182   111620791.822 5  86977241.549 5  21240736.242
  23687857.589   124480536.752 4  96997820.534 4  23687865.799
  22634090.053   118942949.804 5  92682818.884 5  22634094.423
 22  5 25 11 59 47.0000000  0  8G10G15G16G18G23G26G27G29
  21802020.067   114570394.764 5  89275632.610 5  21802026.677
  23365826.968   122788254.172 5  95679160.678 5  23365832.778
  22006421.751   115644532.451 5  90112623.319 5  22006425.351
  21311774.976   111994132.142 5  87268155.857 5  21311777.236
  20451952.255   107475736.519 5  83747327.329 5  20451955.355
  21240847.408   111621413.747 5  86977726.169 5  21240854.448
  23687287.216   124477541.085 4  96995486.248 4  23687296.086
  22634463.753   118944912.840 5  92684348.517 5  22634467.523
 22  5 25 11 59 48.0000000  0  8G10G15G16G18G23G26G27G29
  21801534.079   114567840.756 5  89273642.474 5  21801540.539
  23365701.843   122787598.198 5  95678649.530 5  23365707.643
  22006135.656   115643024.629 5  90111448.392 5  22006138.906
  21312046.990   111995562.025 5  87269270.053 5  21312049.210
  20451809.602   107474986.044 5  83746742.538 5  20451812.242
  21240966.330   111622036.220 5  86978211.201 5  21240972.900
  23686717.419   124474545.361 4  96993151.914 4  23686725.739
  22634837.309   118946876.105 5  92685878.334 5  22634841.359
 22  5 25 11 59 49.0000000  0  8G10G15G16G18G23G26G27G29
  21801048.118   114565287.318 5  89271652.784 5  21801054.338
  23365578.335   122786942.921 5  95678138.921 5  23365583.235
  22005848.719   115641517.569 5  90110274.059 5  22005851.309
  21312318.821   111996992.219 5  87270384.493 5  21312321.171
  20451666.463   107474236.333 5  83746158.356 5  20451669.373
  21241084.634   111622659.444 5  86978696.827 5  21241091.624
  23686146.902   124471549.810 4  96990817.741 4  23686156.192
  22635210.656   118948839.844 5  92687408.516 5  22635215.196
 22  5 25 11 59 50.0000000  0  8G10G15G16G18G23G26G27G29
  21800562.518   114562734.228 5  89269663.361 5  21800568.858
  23365452.644   122786288.164 5  95677628.717 5  23365458.494
  22005561.967   115640011.034 5  90109100.113 5  22005564.557
  21312591.149   111998422.476 5  87271498.981 5  21312593.299
  20451524.493   107473487.182 5  83745574.599 5  20451526.683
  21241203.409   111623283.186 5  86979182.860 5  21241210.339
  23685576.807   124468554.211 4  96988483.489 4  23685585.037
  22635584.824   118950803.781 5  92688938.842 5  22635588.644
 22  5 25 11 59 51.0000000  0  8G10G15G16G18G23G26G27G29
  21800076.578   114560181.668 5  89267674.359 5  21800082.798
  23365328.263   122785634.074 5  95677119.048 5  23365333.303
  22005275.351   115638505.185 5  90107926.727 5  22005277.581
  21312863.250   111999853.012 5  87272613.679 5  21312866.030
  20451381.417   107472738.775 5  83744991.419 5  20451384.487
  21241322.214   111623907.648 5  86979669.451 5  21241329.334
  23685006.803   124465558.740 4  96986149.376 4  23685016.423
  22635958.431   118952768.134 5  92690469.510 5  22635962.851
 22  5 25 11 59 52.0000000  0  8G10G15G16G18G23G26G27G29
  21799591.286   114557629.938 5  89265686.003 5  21799597.046
  23365203.954   122784980.913 5  95676610.089 5  23365210.104
  22004989.022   115637000.319 5  90106754.108 5  22004991.192
  21313135.842   112001284.078 5  87273728.790 5  21313138.212
  20451238.863   107471991.359 5  83744409.029 5  20451242.603
  21241441.588   111624533.093 5  86980156.808 5  21241448.328
  23684436.673   124462563.647 4  96983815.544 4  23684446.323
  22636331.984   118954733.160 5  92692000.696 5  22636336.764
 22  5 25 11 59 53.0000000  0  8G10G15G16G18G23G26G27G29
  21799105.409   114555078.594 5  89263697.939 5  21799111.609
  23365079.783   122784328.299 5  95676101.553 5  23365085.863
  22004702.597   115635496.005 5  90105581.928 5  22004705.057
  21313408.290   112002715.241 5  87274843.997 5  21313410.870
  20451096.875   107471244.532 5  83743827.082 5  20451099.955
  21241560.327   111625159.111 5  86980644.615 5  21241567.347
  23683866.398   124459568.546 4  96981481.689 4  23683875.528
  22636706.003   118956698.452 5  92693532.086 5  22636710.833
 22  5 25 11 59 54.0000000  0  8G10G15G16G18G23G26G27G29
  21798620.222   114552527.623 5  89261710.176 5  21798626.342
  23364955.588   122783676.181 5  95675593.419 5  23364961.668
  22004416.637   115633992.249 5  90104410.166 5  22004419.077
  21313680.223   112004146.517 5  87275959.262 5  21313682.843
  20450955.040   107470498.283 5  83743245.595 5  20450957.800
  21241679.593   111625785.673 5  86981132.844 5  21241686.613
  23683296.001   124456573.415 4  96979147.821 4  23683304.821
  22637079.547   118958663.996 5  92695063.671 5  22637084.787
 22  5 25 11 59 55.0000000  0  8G10G15G16G18G23G26G27G29
  21798134.624   114549977.245 5  89259722.867 5  21798140.904
  23364831.069   122783024.811 5  95675085.862 5  23364837.619
  22004130.779   115632489.230 5  90103238.993 5  22004133.789
  21313953.013   112005578.111 5  87277074.790 5  21313955.713
  20450813.212   107469752.819 5  83742664.700 5  20450816.062
  21241799.303   111626412.992 5  86981621.666 5  21241806.123
  23682727.319   124453578.461 4  96976814.098 4  23682735.349
  22637454.458   118960629.986 5  92696595.605 5  22637459.138
 22  5 25 11 59 56.0000000  0  8G10G15G16G18G23G26G27G29
  21797649.305   114547427.598 5  89257736.133 5  21797655.845
  23364708.265   122782374.327 5  95674578.985 5  23364713.405
  22003844.906   115630987.143 5  90102068.513 5  22003846.826
  21314225.237   112007010.150 5  87278190.667 5  21314228.047
  20450671.874   107469008.300 5  83742084.561 5  20450675.034
  21241918.879   111627041.235 5  86982111.199 5  21241925.279
  23682157.363   124450583.833 4  96974480.628 4  23682164.183
  22637828.387   118962596.604 5  92698128.032 5  22637833.107
 22  5 25 11 59 57.0000000  0  8G10G15G16G18G23G26G27G29
  21797164.319   114544878.371 5  89255749.725 5  21797170.479
  23364584.409   122781724.377 5  95674072.531 5  23364589.819
  22003558.793   115629485.606 5  90100898.505 5  22003561.593
  21314497.808   112008442.333 5  87279306.642 5  21314500.538
  20450530.441   107468264.373 5  83741504.875 5  20450532.681
  21242038.247   111627670.050 5  86982601.186 5  21242045.187
  23681587.175   124447589.225 4  96972147.175 4  23681595.665
  22638203.043   118964563.493 5  92699660.664 5  22638207.703
 22  5 25 11 59 58.0000000  0  8G10G15G16G18G23G26G27G29
  21796678.991   114542329.637 5  89253763.699 5  21796685.431
  23364460.849   122781075.066 5  95673566.577 5  23364466.169
  22003273.562   115627984.752 5  90099729.000 5  22003276.192
  21314770.179   112009874.763 5  87280422.828 5  21314773.139
  20450388.562   107467521.163 5  83740925.748 5  20450391.182
  21242158.185   111628299.559 5  86983091.709 5  21242164.635
  23681018.397   124444594.676 4  96969813.764 4  23681026.337
  22638577.262   118966530.758 5  92701193.595 5  22638582.002
 22  5 25 11 59 59.0000000  0  8G10G15G16G18G23G26G27G29
  21796194.631   114539781.178 5  89251777.882 5  21796200.431
  23364336.747   122780426.163 5  95673060.936 5  23364343.167
  22002987.865   115626484.306 5  90098559.828 5  22002991.225
  21315043.194   112011307.123 5  87281538.950 5  21315045.924
  20450247.132   107466778.379 5  83740346.964 5  20450250.322
  21242278.141   111628929.474 5  86983582.550 5  21242284.691
  23680448.081   124441599.998 4  96967480.246 4  23680457.271
  22638951.346   118968498.137 5  92702726.618 5  22638956.566
 22  5 25 12  0  0.0000000  0  8G10G15G16G18G23G26G27G29
  21795709.489   114537233.098 5  89249792.371 5  21795715.609
  23364212.807   122779777.813 5  95672555.733 5  23364219.677
  22002702.310   115624984.461 5  90097391.125 5  22002705.770
  21315315.312   112012739.661 5  87282655.209 5  21315318.372
  20450106.193   107466036.237 5  83739768.664 5  20450108.623
  21242397.434   111629559.993 5  86984073.862 5  21242404.744
  23679878.736   124438605.320 4  96965146.715 4  23679886.266
  22639326.545   118970465.828 5  92704259.879 5  22639331.215
 22  5 25 12  0  1.0000000  0  8G10G15G16G18G23G26G27G29
  21795224.866   114534685.664 5  89247807.363 5  21795230.976
  23364090.054   122779130.220 5  95672051.117 5  23364096.534
  22002417.118   115623485.397 5  90096223.026 5  22002419.938
  21315588.180   112014172.531 5  87283771.724 5  21315591.160
  20449965.078   107465294.890 5  83739191.001 5  20449967.598
  21242518.002   111630191.308 5  86984565.800 5  21242524.852
  23679309.691   124435610.853 4  96962813.372 4  23679316.041
  22639700.354   118972433.986 5  92705793.512 5  22639705.274
 22  5 25 12  0  2.0000000  0  8G10G15G16G18G23G26G27G29
  21794740.065   114532138.950 5  89245822.911 5  21794746.375
  23363967.418   122778483.481 5  95671547.160 5  23363973.828
  22002131.949   115621987.229 5  90095055.612 5  22002134.389
  21315860.818   112015605.844 5  87284888.593 5  21315864.038
  20449823.834   107464554.467 5  83738614.047 5  20449827.134
  21242638.237   111630823.494 5  86985058.408 5  21242645.277
  23678738.137   124432616.668 4  96960480.272 4  23678747.117
  22640075.184   118974402.725 5  92707327.584 5  22640079.904
 22  5 25 12  0  3.0000000  0  8G10G15G16G18G23G26G27G29
  21794255.505   114529592.539 5  89243838.693 5  21794261.775
  23363844.719   122777837.214 5  95671043.583 5  23363850.649
  22001846.406   115620489.537 5  90093888.585 5  22001849.546
  21316133.497   112017039.190 5  87286005.483 5  21316136.247
  20449683.117   107463814.556 5  83738037.486 5  20449685.807
  21242758.717   111631456.199 5  86985551.424 5  21242765.827
  23678168.315   124429622.413 4  96958147.059 4  23678176.615
  22640449.643   118976371.673 5  92708861.830 5  22640454.923
 22  5 25 12  0  4.0000000  0  8G10G15G16G18G23G26G27G29
  21793771.067   114527046.768 5  89241854.979 5  21793777.117
  23363720.590   122777191.722 5  95670540.603 5  23363727.730
  22001561.801   115618992.634 5  90092722.171 5  22001564.761
  21316406.545   112018472.893 5  87287122.653 5  21316409.015
  20449542.466   107463075.481 5  83737461.585 5  20449545.266
  21242879.914   111632089.693 5  86986045.053 5  21242886.284
  23677598.701   124426628.393 4  96955814.074 4  23677607.461
  22640824.494   118978341.119 5  92710396.456 5  22640829.364
 22  5 25 12  0  5.0000000  0  8G10G15G16G18G23G26G27G29
  21793286.720   114524501.608 5  89239871.741 5  21793292.960
  23363598.571   122776546.977 5  95670038.209 5  23363605.501
  22001277.493   115617496.531 5  90091556.370 5  22001280.083
  21316679.476   112019906.951 5  87288240.100 5  21316682.366
  20449402.421   107462337.215 5  83736886.314 5  20449404.921
  21243000.659   111632723.971 5  86986539.295 5  21243006.899
  23677029.359   124423634.553 4  96953481.212 4  23677036.779
  22641198.833   118980311.039 5  92711931.450 5  22641204.363
 22  5 25 12  0  6.0000000  0  8G10G15G16G18G23G26G27G29
  21792802.657   114521957.095 5  89237889.003 5  21792808.977
  23363476.574   122775903.014 5  95669536.418 5  23363482.194
  22000993.436   115616001.226 5  90090391.203 5  22000995.336
  21316952.392   112021341.352 5  87289357.809 5  21316954.952
  20449262.307   107461599.783 5  83736311.695 5  20449264.777
  21243121.316   111633359.072 5  86987034.177 5  21243127.996
  23676459.189   124420640.960 4  96951148.562 4  23676467.629
  22641574.176   118982281.480 5  92713466.857 5  22641579.166
 22  5 25 12  0  7.0000000  0  8G10G15G16G18G23G26G27G29
  21792318.429   114519413.061 5  89235906.645 5  21792324.729
  23363352.768   122775259.661 5  95669035.106 5  23363359.718
  22000708.642   115614506.560 5  90089226.539 5  22000711.272
  21317225.476   112022775.931 5  87290475.682 5  21317228.226
  20449121.486   107460863.030 5  83735737.597 5  20449124.436
  21243242.348   111633994.808 5  86987529.555 5  21243248.748
  23675890.027   124417647.421 4  96948815.941 4  23675897.217
  22641948.905   118984252.249 5  92715002.514 5  22641954.305
 22  5 25 12  0  8.0000000  0  8G10G15G16G18G23G26G27G29
  21791834.189   114516869.639 5  89233924.756 5  21791840.719
  23363230.771   122774617.044 5  95668534.362 5  23363237.721
  22000423.819   115613012.690 5  90088062.469 5  22000427.119
  21317498.626   112024210.899 5  87291593.811 5  21317501.206
  20448981.702   107460127.090 5  83735164.133 5  20448984.662
  21243363.782   111634631.358 5  86988025.566 5  21243369.802
  23675320.440   124414654.118 4  96946483.481 4  23675327.670
  22642324.161   118986223.539 5  92716538.576 5  22642329.141
 22  5 25 12  0  9.0000000  0  8G10G15G16G18G23G26G27G29
  21791350.312   114514326.684 5  89231943.236 5  21791357.022
  23363109.169   122773975.063 5  95668034.123 5  23363115.619
  22000140.077   115611519.453 5  90086898.917 5  22000142.837
  21317771.464   112025646.013 5  87292712.102 5  21317774.564
  20448842.085   107459391.792 5  83734591.181 5  20448844.425
  21243484.302   111635268.517 5  86988522.051 5  21243491.222
  23674750.552   124411660.837 4  96944151.060 4  23674757.962
  22642699.531   118988195.117 5  92718074.876 5  22642704.451
 22  5 25 12  0 10.0000000  0  8G10G15G16G18G23G26G27G29
  21790867.020   114511784.029 5  89229961.946 5  21790873.060
  23362987.249   122773333.529 5  95667534.223 5  23362993.379
  21999855.775   115610026.670 5  90085735.699 5  21999858.005
  21318044.323   112027081.172 5  87293830.396 5  21318047.613
  20448701.689   107458657.021 5  83734018.627 5  20448704.859
  21243605.907   111635906.180 5  86989018.927 5  21243612.607
  23674181.537   124408667.439 4  96941818.549 4  23674188.517
  22643075.306   118990166.908 5  92719611.323 5  22643079.296
 22  5 25 12  0 11.0000000  0  8G10G15G16G18G23G26G27G29
  21790382.978   114509241.740 5  89227980.951 5  21790389.108
  23362865.036   122772692.493 5  95667034.712 5  23362871.846
  21999572.306   115608534.427 5  90084572.917 5  21999574.486
  21318317.401   112028516.421 5  87294948.774 5  21318320.661
  20448562.550   107457922.792 5  83733446.502 5  20448564.980
  21243727.778   111636544.352 5  86989516.198 5  21243733.938
  23673611.185   124405674.031 4  96939486.045 4  23673618.735
  22643450.359   118992138.911 5  92721147.948 5  22643454.739
 22  5 25 12  0 12.0000000  0  8G10G15G16G18G23G26G27G29
  21789899.212   114506699.877 5  89226000.275 5  21789905.302
  23362743.320   122772052.020 5  95666535.638 5  23362749.390
  21999288.100   115607042.763 5  90083410.581 5  21999290.840
  21318590.623   112029951.814 5  87296067.253 5  21318593.743
  20448422.616   107457189.185 5  83732874.866 5  20448425.146
  21243849.035   111637183.129 5  86990013.952 5  21243855.635
  23673041.016   124402680.610 4  96937153.507 4  23673049.146
  22643825.186   118994111.227 5  92722684.819 5  22643830.106
 22  5 25 12  0 13.0000000  0  8G10G15G16G18G23G26G27G29
  21789415.916   114504158.484 5  89224019.969 5  21789421.556
  23362621.569   122771412.131 5  95666037.037 5  23362628.029
  21999004.211   115605551.764 5  90082248.749 5  21999007.071
  21318863.938   112031387.390 5  87297185.881 5  21318866.628
  20448283.290   107456456.245 5  83732303.740 5  20448285.160
  21243971.024   111637822.566 5  86990512.205 5  21243977.064
  23672472.351   124399687.255 4  96934821.023 4  23672479.131
  22644201.117   118996083.848 5  92724221.921 5  22644205.717
 22  5 25 12  0 14.0000000  0  8G10G15G16G18G23G26G27G29
  21788932.582   114501617.821 5  89222040.236 5  21788938.002
  23362500.417   122770773.141 5  95665539.123 5  23362506.547
  21998721.051   115604061.622 5  90081087.605 5  21998722.991
  21319137.390   112032823.418 5  87298304.871 5  21319139.690
  20448143.716   107455724.231 5  83731733.337 5  20448146.406
  21244092.521   111638462.872 5  86991011.149 5  21244098.831
  23671902.986   124396694.217 4  96932488.808 4  23671908.766
  22644576.652   118998057.095 5  92725759.512 5  22644581.272
 22  5 25 12  0 15.0000000  0  8G10G15G16G18G23G26G27G29
  21788449.065   114499077.958 5  89220061.120 5  21788454.925
  23362379.540   122770135.093 5  95665041.936 5  23362385.570
  21998436.899   115602572.471 5  90079927.229 5  21998440.219
  21319410.927   112034259.972 5  87299424.261 5  21319413.177
  20448004.600   107454993.225 5  83731163.726 5  20448006.970
  21244214.413   111639104.177 5  86991510.865 5  21244221.043
  23671332.717   124393701.584 4  96930156.889 4  23671340.067
  22644952.415   119000031.012 5  92727297.624 5  22644956.695
 22  5 25 12  0 16.0000000  0  8G10G15G16G18G23G26G27G29
  21787965.808   114496538.838 5  89218082.590 5  21787971.808
  23362258.148   122769497.918 5  95664545.449 5  23362263.768
  21998154.228   115601084.254 5  90078767.596 5  21998157.228
  21319684.179   112035696.996 5  87300544.028 5  21319686.709
  20447865.631   107454263.143 5  83730594.829 5  20447868.261
  21244336.726   111639746.395 5  86992011.298 5  21244343.076
  23670763.993   124390709.304 4  96927825.216 4  23670770.793
  22645327.992   119002005.547 5  92728836.211 5  22645332.612
 22  5 25 12  0 17.0000000  0  8G10G15G16G18G23G26G27G29
  21787482.306   114493999.784 5  89216104.106 5  21787488.506
  23362137.248   122768860.968 5  95664049.129 5  23362141.758
  21997871.302   115599596.276 5  90077608.119 5  21997873.072
  21319957.521   112037133.801 5  87301663.601 5  21319960.391
  20447726.857   107453533.325 5  83730026.145 5  20447729.547
  21244459.278   111640388.845 5  86992511.904 5  21244465.518
  23670193.767   124387716.651 4  96925493.292 4  23670201.087
  22645703.581   119003980.004 5  92730374.743 5  22645708.431
 22  5 25 12  0 18.0000000  0  8G10G15G16G18G23G26G27G29
  21786999.439   114491461.256 5  89214126.038 5  21787005.769
  23362015.628   122768224.680 5  95663553.315 5  23362021.998
  21997588.205   115598108.963 5  90076449.184 5  21997590.785
  21320231.129   112038570.857 5  87302783.395 5  21320233.509
  20447588.227   107452804.240 5  83729458.023 5  20447590.567
  21244581.461   111641032.005 5  86993013.062 5  21244587.861
  23669624.458   124384724.121 4  96923161.444 4  23669632.358
  22646079.269   119005954.863 5  92731913.593 5  22646084.069
 22  5 25 12  0 19.0000000  0  8G10G15G16G18G23G26G27G29
  21786516.551   114488923.396 5  89212148.480 5  21786522.841
  23361894.776   122767589.192 5  95663058.132 5  23361900.166
  21997305.147   115596622.518 5  90075290.914 5  21997307.787
  21320504.651   112040008.312 5  87303903.483 5  21320506.991
  20447449.849   107452076.033 5  83728890.591 5  20447452.309
  21244704.538   111641676.001 5  86993514.874 5  21244710.588
  23669054.723   124381731.834 4  96920829.795 4  23669062.713
  22646455.679   119007930.278 5  92733452.879 5  22646460.019
 22  5 25 12  0 20.0000000  0  8G10G15G16G18G23G26G27G29
  21786033.376   114486385.781 5  89210171.124 5  21786039.836
  23361773.462   122766954.102 5  95662563.249 5  23361779.932
  21997022.964   115595136.462 5  90074132.951 5  21997025.034
  21320777.699   112041445.712 5  87305023.538 5  21320780.519
  20447311.531   107451348.229 5  83728323.486 5  20447313.321
  21244826.865   111642320.403 5  86994017.008 5  21244833.085
  23668485.292   124378739.380 4  96918498.029 4  23668493.522
  22646830.704   119009905.788 5  92734992.224 5  22646835.964
 22  5 25 12  0 21.0000000  0  8G10G15G16G18G23G26G27G29
  21785550.680   114483848.591 5  89208194.094 5  21785556.860
  23361653.464   122766319.557 5  95662068.795 5  23361658.874
  21996740.451   115593651.021 5  90072975.453 5  21996742.101
  21321051.841   112042883.258 5  87306143.706 5  21321054.211
  20447173.147   107450621.059 5  83727756.846 5  20447175.207
  21244949.442   111642965.400 5  86994519.602 5  21244955.822
  23667916.238   124375746.949 4  96916166.286 4  23667924.578
  22647206.542   119011881.582 5  92736531.804 5  22647211.692
 22  5 25 12  0 22.0000000  0  8G10G15G16G18G23G26G27G29
  21785067.813   114481311.909 5  89206217.461 5  21785074.463
  23361532.534   122765685.677 5  95661574.879 5  23361538.064
  21996457.396   115592166.216 5  90071818.482 5  21996460.266
  21321325.030   112044321.052 5  87307264.053 5  21321327.920
  20447034.744   107449894.609 5  83727190.784 5  20447036.744
  21245071.784   111643611.072 5  86995022.725 5  21245078.684
  23667347.171   124372754.624 4  96913834.593 4  23667354.541
  22647583.429   119013857.752 5  92738071.684 5  22647587.769
 22  5 25 12  0 23.0000000  0  8G10G15G16G18G23G26G27G29
  21784585.615   114478775.943 5  89204241.391 5  21784591.745
  23361412.644   122765052.662 5  95661081.601 5  23361418.134
  21996175.274   115590682.323 5  90070662.190 5  21996176.784
  21321598.623   112045759.273 5  87308384.756 5  21321601.773
  20446896.393   107449169.067 5  83726625.422 5  20446898.963
  21245195.172   111644257.643 5  86995526.549 5  21245201.552
  23666778.004   124369762.593 4  96911503.140 4  23666785.004
  22647959.381   119015834.512 5  92739612.017 5  22647963.831
 22  5 25 12  0 24.0000000  0  8G10G15G16G18G23G26G27G29
  21784103.252   114476240.676 5  89202265.859 5  21784109.362
  23361291.977   122764420.429 5  95660588.957 5  23361297.627
  21995892.572   115589199.288 5  90069506.577 5  21995895.492
  21321872.691   112047197.900 5  87309505.749 5  21321875.231
  20446758.447   107448444.402 5  83726060.747 5  20446760.937
  21245317.865   111644905.076 5  86996031.032 5  21245324.995
  23666207.762   124366770.844 4  96909171.914 4  23666216.382
  22648335.812   119017811.819 5  92741152.771 5  22648340.132
 22  5 25 12  0 25.0000000  0  8G10G15G16G18G23G26G27G29
  21783620.895   114473705.975 5  89200290.772 5  21783626.945
  23361171.311   122763788.954 5  95660096.906 5  23361176.941
  21995610.201   115587716.984 4  90068351.535 4  21995613.161
  21322146.545   112048636.841 5  87310627.014 5  21322148.945
  20446621.064   107447720.522 5  83725496.689 5  20446623.104
  21245441.551   111645553.256 5  86996536.102 5  21245448.231
  23665638.663   124363779.267 4  96906840.811 4  23665647.003
  22648712.136   119019789.608 5  92742693.893 5  22648716.166
 22  5 25 12  0 26.0000000  0  8G10G15G16G18G23G26G27G29
  21783138.463   114471171.754 6  89198316.051 6  21783144.733
  23361051.076   122763158.073 5  95659605.311 5  23361057.036
  21995328.477   115586235.326 5  90067196.995 5  21995331.417
  21322420.651   112050075.951 5  87311748.388 5  21322423.081
  20446482.791   107446997.294 5  83724933.129 5  20446485.581
  21245564.879   111646202.065 6  86997041.671 6  21245571.889
  23665069.426   124360787.739 4  96904509.751 4  23665077.996
  22649088.100   119021767.707 6  92744235.261 6  22649093.050
 22  5 25 12  0 27.0000000  0  8G10G15G16G18G23G26G27G29
  21782656.202   114468638.349 6  89196341.969 6  21782662.852
  23360930.484   122762528.176 5  95659114.489 5  23360936.834
  21995047.224   115584754.665 5  90066043.237 5  21995049.584
  21322694.380   112051515.621 6  87312870.210 6  21322697.150
  20446345.929   107446275.099 6  83724370.385 6  20446348.019
  21245688.214   111646851.880 6  86997548.020 6  21245695.374
  23664499.974   124357796.632 4  96902179.029 4  23664508.734
  22649464.627   119023746.517 6  92745777.182 6  22649469.557
 22  5 25 12  0 28.0000000  0  8G10G15G16G18G23G26G27G29
  21782174.441   114466105.076 6  89194367.992 6  21782180.461
  23360811.512   122761898.529 5  95658623.849 5  23360817.102
  21994764.846   115583274.282 5  90064889.682 5  21994767.936
  21322967.946   112052955.134 6  87313991.910 6  21322970.526
  20446208.552   107445553.220 6  83723807.879 6  20446210.882
  21245812.025   111647501.983 6  86998054.592 6  21245819.125
  23663931.342   124354805.264 4  96899848.094 4  23663939.062
  22649841.379   119025725.302 6  92747319.093 6  22649846.029
 22  5 25 12  0 29.0000000  0  8G10G15G16G18G23G26G27G29
  21781692.102   114463572.071 6  89192394.227 6  21781698.712
  23360691.745   122761269.297 5  95658133.543 5  23360697.715
  21994483.131   115581794.340 5  90063736.486 5  21994485.991
  21323242.601   112054394.648 6  87315113.595 6  21323244.891
  20446071.676   107444831.804 6  83723245.738 6  20446073.356
  21245935.633   111648152.534 6  86998561.510 6  21245942.943
  23663363.179   124351813.728 4  96897517.033 4  23663369.949
  22650217.616   119027704.251 6  92748861.129 6  22650222.616
 22  5 25 12  0 30.0000000  0  8G10G15G16G18G23G26G27G29
  21781210.366   114461039.769 6  89190421.002 6  21781216.786
  23360571.522   122760640.901 6  95657643.890 6  23360578.112
  21994201.842   115580315.246 5  90062583.942 5  21994204.972
  21323516.021   112055834.559 6  87316235.617 6  21323519.071
  20445934.311   107444111.291 6  83722684.300 6  20445936.471
  21246059.720   111648803.960 6  86999069.114 6  21246066.950
  23662793.132   124348822.493 5  96895186.185 5  23662801.082
  22650594.206   119029683.747 6  92750403.588 6  22650599.296
 22  5 25 12  0 31.0000000  0  8G10G15G16G18G23G26G27G29
  21780728.686   114458508.080 6  89188448.264 6  21780734.956
  23360453.026   122760013.267 6  95657154.825 6  23360459.136
  21993920.250   115578836.951 5  90061432.040 5  21993923.910
  21323790.043   112057274.828 6  87317357.890 6  21323792.993
  20445797.258   107443391.576 6  83722123.486 6  20445799.438
  21246184.017   111649456.172 6  86999577.326 6  21246190.847
  23662223.554   124345831.460 5  96892855.530 5  23662231.284
  22650971.324   119031663.746 6  92751946.435 6  22650976.524
 22  5 25 12  0 32.0000000  0  8G10G15G16G18G23G26G27G29
  21780247.145   114455976.990 6  89186475.991 6  21780253.145
  23360332.866   122759386.355 6  95656666.315 6  23360339.486
  21993639.806   115577359.415 5  90060280.704 5  21993643.296
  21324064.515   112058715.400 6  87318480.422 6  21324067.415
  20445660.661   107442672.669 6  83721563.299 6  20445662.271
  21246308.826   111650109.139 6  87000086.137 6  21246315.216
  23661654.961   124342840.610 5  96890524.985 5  23661662.731
  22651348.511   119033644.186 6  92753489.638 6  22651353.301
 22  5 25 12  0 33.0000000  0  8G10G15G16G18G23G26G27G29
  21779765.420   114453446.767 6  89184504.385 6  21779771.540
  23360215.284   122758760.462 6  95656178.610 6  23360220.584
  21993358.025   115575882.927 5  90059130.202 5  21993361.395
  21324338.421   112060156.575 6  87319603.414 6  21324341.481
  20445523.587   107441954.833 6  83721003.943 6  20445526.127
  21246433.414   111650763.163 6  87000595.756 6  21246439.674
  23661085.745   124339850.216 5  96888194.823 5  23661093.335
  22651725.812   119035625.393 6  92755033.424 6  22651730.382
 22  5 25 12  0 34.0000000  0  8G10G15G16G18G23G26G27G29
  21779284.034   114450916.911 6  89182533.070 6  21779290.344
  23360095.125   122758135.070 6  95655691.297 6  23360101.235
  21993077.605   115574406.964 5  90057980.102 5  21993080.905
  21324613.252   112061597.820 6  87320726.454 6  21324615.652
  20445386.896   107441237.529 6  83720445.010 6  20445389.566
  21246557.453   111651417.707 7  87001105.790 7  21246564.263
  23660516.940   124336859.778 5  96885864.614 5  23660524.320
  22652103.103   119037606.795 6  92756577.374 6  22652107.493
 22  5 25 12  0 35.0000000  0  8G10G15G16G18G23G26G27G29
  21778802.523   114448387.742 7  89180562.293 7  21778809.043
  23359976.269   122757510.507 6  95655204.623 6  23359982.129
  21992797.500   115572931.848 5  90056830.661 5  21992799.650
  21324887.539   112063039.466 6  87321849.815 6  21324889.999
  20445250.515   107440521.124 6  83719886.770 6  20445252.935
  21246682.092   111652073.108 7  87001616.497 7  21246688.912
  23659947.136   124333869.630 5  96883534.623 5  23659955.226
  22652479.951   119039588.789 6  92758121.777 6  22652484.551
 22  5 25 12  0 36.0000000  0  8G10G15G16G18G23G26G27G29
  21778321.281   114445859.061 6  89178591.895 6  21778327.731
  23359857.323   122756886.576 6  95654718.446 6  23359863.523
  21992517.005   115571457.400 5  90055681.740 5  21992518.995
  21325161.276   112064481.337 6  87322973.348 6  21325164.506
  20445114.879   107439805.405 6  83719329.069 6  20445117.129
  21246806.692   111652729.172 6  87002127.717 6  21246813.772
  23659378.439   124330879.558 5  96881204.703 5  23659387.119
  22652857.684   119041571.109 6  92759666.439 6  22652861.814
 22  5 25 12  0 37.0000000  0  8G10G15G16G18G23G26G27G29
  21777840.537   114443330.905 6  89176621.899 6  21777846.697
  23359738.974   122756263.307 6  95654232.789 6  23359745.094
  21992236.250   115569983.628 5  90054533.350 5  21992239.170
  21325436.129   112065923.434 6  87324097.057 6  21325438.979
  20444978.345   107439090.391 6  83718771.914 6  20444981.025
  21246932.278   111653385.932 6  87002639.468 6  21246938.628
  23658809.307   124327889.571 4  96878874.833 4  23658817.047
  22653234.373   119043553.839 6  92761211.424 6  22653239.283
 22  5 25 12  0 38.0000000  0  8G10G15G16G18G23G26G27G29
  21777359.712   114440803.252 6  89174652.308 6  21777365.742
  23359620.718   122755640.678 6  95653747.614 6  23359626.488
  21991955.560   115568510.557 5  90053385.497 5  21991958.560
  21325710.430   112067365.764 6  87325220.948 6  21325713.460
  20444842.338   107438376.079 6  83718215.311 6  20444845.088
  21247056.725   111654043.359 6  87003151.752 6  21247063.655
  23658241.317   124324899.698 5  96876545.071 5  23658248.047
  22653611.851   119045536.932 6  92762756.691 6  22653616.441
 22  5 25 12  0 39.0000000  0  8G10G15G16G18G23G26G27G29
  21776878.260   114438276.442 6  89172683.366 6  21776884.670
  23359502.183   122755019.021 6  95653263.207 6  23359508.183
  21991675.662   115567038.465 5  90052238.416 5  21991678.522
  21325984.569   112068808.669 6  87326345.288 6  21325987.999
  20444707.072   107437662.812 6  83717659.519 6  20444709.342
  21247182.005   111654701.813 6  87003664.834 6  21247189.165
  23657671.670   124321910.243 5  96874215.646 5  23657679.870
  22653988.999   119047520.743 6  92764302.510 6  22653994.119
 22  5 25 12  0 40.0000000  0  8G10G15G16G18G23G26G27G29
  21776397.818   114435750.086 6  89170714.778 6  21776403.888
  23359383.741   122754397.985 6  95652779.280 6  23359390.031
  21991396.015   115565567.000 5  90051091.813 5  21991398.085
  21326259.866   112070251.715 6  87327469.734 6  21326262.766
  20444571.197   107436950.179 6  83717104.217 6  20444574.087
  21247307.714   111655360.856 6  87004178.370 6  21247314.364
  23657103.272   124318920.859 5  96871886.251 5  23657111.572
  22654366.494   119049504.853 6  92765848.561 6  22654371.654
 22  5 25 12  0 41.0000000  0  8G10G15G16G18G23G26G27G29
  21775917.137   114433224.586 6  89168746.862 6  21775922.977
  23359265.698   122753777.930 6  95652296.119 6  23359272.118
  21991115.485   115564096.572 5  90049946.016 5  21991118.635
  21326534.290   112071695.359 6  87328594.671 6  21326537.490
  20444435.541   107436238.614 6  83716549.754 6  20444438.391
  21247433.459   111656020.961 6  87004692.739 6  21247440.109
  23656534.371   124315931.898 4  96869557.206 4  23656542.011
  22654743.714   119051489.716 6  92767395.204 6  22654749.664
 22  5 25 12  0 42.0000000  0  8G10G15G16G18G23G26G27G29
  21775437.062   114430699.549 6  89166779.306 6  21775442.692
  23359146.938   122753158.478 6  95651813.439 6  23359154.208
  21990835.544   115562626.759 5  90048800.723 5  21990838.704
  21326808.830   112073139.206 6  87329719.731 6  21326812.410
  20444300.262   107435527.701 6  83715995.796 6  20444302.982
  21247559.636   111656681.685 6  87005207.587 6  21247565.906
  23655965.059   124312943.015 5  96867228.201 5  23655973.849
  22655122.271   119053474.891 6  92768942.097 6  22655126.961
 22  5 25 12  0 43.0000000  0  8G10G15G16G18G23G26G27G29
  21774956.233   114428174.865 6  89164812.025 6  21774962.093
  23359030.616   122752539.488 6  95651331.114 6  23359036.406
  21990556.279   115561157.464 5  90047655.807 5  21990559.109
  21327084.037   112074583.086 6  87330844.827 6  21327086.737
  20444165.958   107434817.329 6  83715442.253 6  20444167.848
  21247684.820   111657342.935 7  87005722.840 7  21247691.640
  23655396.320   124309954.034 5  96864899.133 5  23655404.930
  22655500.238   119055460.275 6  92770489.141 6  22655504.778
 22  5 25 12  0 44.0000000  0  8G10G15G16G18G23G26G27G29
  21774475.663   114425650.440 6  89162844.940 6  21774481.713
  23358912.830   122751920.935 6  95650849.122 6  23358918.850
  21990277.583   115559688.601 5  90046511.253 5  21990279.553
  21327358.866   112076026.958 6  87331969.922 6  21327361.796
  20444030.077   107434107.414 6  83714889.076 6  20444033.017
  21247810.478   111658004.606 7  87006238.435 7  21247817.448
  23654828.255   124306964.931 5  96862569.952 5  23654836.595
  22655877.922   119057445.816 6  92772036.314 6  22655882.482
 22  5 25 12  0 45.0000000  0  8G10G15G16G18G23G26G27G29
  21773995.600   114423126.552 6  89160878.271 6  21774001.520
  23358795.773   122751303.024 6  95650367.636 6  23358801.123
  21989997.882   115558220.435 5  90045367.217 5  21989999.832
  21327634.222   112077471.060 6  87333095.197 6  21327636.572
  20443895.015   107433398.225 6  83714336.466 6  20443898.045
  21247936.936   111658666.965 7  87006754.549 7  21247943.596
  23654259.099   124303975.934 5  96860240.877 5  23654266.469
  22656256.191   119059431.745 6  92773583.780 6  22656260.651
 22  5 25 12  0 46.0000000  0  8G10G15G16G18G23G26G27G29
  21773516.183   114420603.419 6  89158912.196 6  21773521.263
  23358677.259   122750686.015 6  95649886.848 6  23358683.829
  21989718.922   115556753.190 5  90044223.928 5  21989720.592
  21327908.073   112078915.650 6  87334220.848 6  21327911.393
  20443760.138   107432689.978 6  83713784.583 6  20443763.308
  21248063.587   111659330.263 7  87007271.406 7  21248069.877
  23653690.381   124300987.284 5  96857912.065 5  23653699.111
  22656633.702   119061418.286 6  92775131.738 6  22656638.722
 22  5 25 12  0 47.0000000  0  8G10G15G16G18G23G26G27G29
  21773035.502   114418080.800 6  89156946.521 6  21773041.372
  23358559.828   122750069.681 6  95649406.588 6  23358566.568
  21989440.151   115555286.663 5  90043081.162 5  21989441.711
  21328183.325   112080360.492 6  87335346.701 6  21328186.205
  20443625.864   107431982.460 6  83713233.269 6  20443628.964
  21248189.559   111659994.258 7  87007788.800 7  21248196.259
  23653121.926   124297998.753 5  96855583.346 5  23653130.226
  22657012.094   119063405.252 6  92776680.006 6  22657016.674
 22  5 25 12  0 48.0000000  0  8G10G15G16G18G23G26G27G29
  21772555.304   114415558.864 6  89154981.376 6  21772561.574
  23358442.681   122749454.172 6  95648926.966 6  23358448.741
  21989160.817   115553820.955 5  90041939.050 5  21989163.247
  21328458.352   112081805.713 6  87336472.857 6  21328461.432
  20443491.114   107431275.810 6  83712682.638 6  20443494.494
  21248316.114   111660659.083 6  87008306.843 6  21248322.724
  23652552.947   124295010.496 5  96853254.846 5  23652561.287
  22657390.474   119065392.736 6  92778228.696 6  22657394.894
 22  5 25 12  0 49.0000000  0  8G10G15G16G18G23G26G27G29
  21772075.555   114413037.258 6  89153016.494 6  21772081.675
  23358325.417   122748839.133 6  95648447.719 6  23358332.077
  21988881.383   115552355.745 5  90040797.346 5  21988884.363
  21328733.384   112083250.996 6  87337599.044 6  21328736.264
  20443356.894   107430569.684 6  83712132.405 6  20443359.964
  21248442.782   111661324.430 6  87008825.296 6  21248449.262
  23651984.448   124292022.148 4  96850926.252 4  23651992.888
  22657768.117   119067380.418 6  92779777.532 6  22657772.917
 22  5 25 12  0 50.0000000  0  8G10G15G16G18G23G26G27G29
  21771595.674   114410516.563 6  89151052.311 6  21771602.044
  23358207.742   122748225.135 6  95647969.282 6  23358215.272
  21988603.236   115550891.615 5  90039656.459 5  21988605.926
  21329008.450   112084696.905 6  87338725.730 6  21329011.270
  20443222.895   107429864.674 6  83711583.049 6  20443225.445
  21248569.477   111661990.828 6  87009344.572 6  21248576.027
  23651415.814   124289034.290 4  96848598.072 4  23651424.994
  22658145.984   119069368.882 6  92781326.982 6  22658151.494
 22  5 25 12  0 51.0000000  0  8G10G15G16G18G23G26G27G29
  21771115.466   114407996.120 6  89149088.336 6  21771122.556
  23358091.717   122747611.525 6  95647491.145 6  23358098.687
  21988324.675   115549427.903 5  90038515.903 5  21988327.775
  21329284.244   112086142.781 6  87339852.382 6  21329286.534
  20443088.930   107429160.093 6  83711034.022 6  20443091.820
  21248696.020   111662657.664 6  87009864.176 6  21248702.830
  23650847.605   124286046.266 5  96846269.750 5  23650856.135
  22658524.523   119071357.439 6  92782876.506 6  22658529.783
 22  5 25 12  0 52.0000000  0  8G10G15G16G18G23G26G27G29
  21770636.632   114405476.429 6  89147124.942 6  21770642.892
  23357975.598   122746998.826 6  95647013.716 6  23357982.008
  21988046.719   115547965.136 5  90037376.085 5  21988049.259
  21329559.423   112087589.134 6  87340979.408 6  21329561.473
  20442955.307   107428456.476 6  83710485.755 6  20442957.827
  21248823.102   111663325.427 6  87010384.514 6  21248830.092
  23650278.248   124283058.594 4  96843941.699 4  23650287.708
  22658903.161   119073346.636 6  92784426.528 6  22658908.401
 22  5 25 12  0 53.0000000  0  8G10G15G16G18G23G26G27G29
  21770156.952   114402957.547 6  89145162.187 6  21770163.762
  23357859.165   122746387.071 6  95646537.026 6  23357865.565
  21987768.266   115546503.320 5  90036236.999 5  21987770.566
  21329834.918   112089036.002 6  87342106.833 6  21329837.318
  20442821.215   107427753.856 6  83709938.254 6  20442824.135
  21248950.676   111663994.157 6  87010905.601 6  21248957.296
  23649710.258   124280071.346 5  96841613.962 5  23649719.918
  22659282.212   119075336.522 6  92785977.082 6  22659286.972
 22  5 25 12  0 54.0000000  0  8G10G15G16G18G23G26G27G29
  21769678.045   114400438.892 6  89143199.599 6  21769684.425
  23357742.854   122745775.676 6  95646060.619 6  23357749.424
  21987489.867   115545041.911 5  90035098.237 5  21987493.127
  21330109.860   112090482.826 6  87343234.224 6  21330112.640
  20442687.679   107427051.648 6  83709391.081 6  20442690.439
  21249077.910   111664663.289 6  87011427.002 6  21249084.600
  23649141.297   124277083.887 5  96839286.078 5  23649150.367
  22659660.973   119077326.485 6  92787527.701 6  22659665.553
 22  5 25 12  0 55.0000000  0  8G10G15G16G18G23G26G27G29
  21769198.881   114397920.612 6  89141237.301 6  21769205.151
  23357626.544   122745164.787 6  95645584.600 6  23357633.054
  21987212.076   115543581.034 5  90033959.896 5  21987214.666
  21330384.920   112091929.732 6  87344361.684 6  21330388.020
  20442554.367   107426350.006 6  83708844.344 6  20442556.817
  21249205.523   111665332.938 6  87011948.800 6  21249212.073
  23648573.343   124274096.395 5  96836958.175 5  23648581.643
  22660039.614   119079316.693 6  92789078.498 6  22660044.294
 22  5 25 12  0 56.0000000  0  8G10G15G16G18G23G26G27G29
  21768720.254   114395403.177 6  89139275.663 6  21768726.284
  23357510.833   122744554.885 6  95645109.353 6  23357516.573
  21986934.429   115542121.153 5  90032822.337 5  21986936.619
  21330660.657   112093377.192 6  87345489.582 6  21330663.187
  20442421.112   107425649.405 6  83708298.418 6  20442423.362
  21249333.220   111666003.621 7  87012471.411 7  21249339.620
  23648004.382   124271109.341 5  96834630.596 5  23648012.962
  22660418.207   119081307.606 6  92790629.868 6  22660423.247
 22  5 25 12  0 57.0000000  0  8G10G15G16G18G23G26G27G29
  21768241.080   114392886.205 6  89137314.389 6  21768247.340
  23357395.311   122743945.610 6  95644634.591 6  23357401.401
  21986657.013   115540661.924 5  90031685.274 5  21986659.053
  21330935.965   112094824.847 6  87346617.617 6  21330938.635
  20442287.588   107424949.453 6  83707753.006 6  20442290.378
  21249460.377   111666674.928 7  87012994.509 7  21249467.427
  23647436.497   124268122.318 5  96832303.046 5  23647443.757
  22660797.211   119083298.864 6  92792181.489 6  22660802.091
 22  5 25 12  0 58.0000000  0  8G10G15G16G18G23G26G27G29
  21767761.922   114390370.064 7  89135353.761 7  21767768.402
  23357279.186   122743337.309 6  95644160.590 6  23357285.186
  21986378.833   115539203.697 5  90030549.011 5  21986381.703
  21331211.379   112096273.062 6  87347746.096 6  21331214.359
  20442154.912   107424250.568 6  83707208.415 6  20442157.102
  21249587.959   111667347.255 7  87013518.390 7  21249595.409
  23646867.138   124265135.742 5  96829975.866 5  23646875.158
  22661176.706   119085290.834 6  92793733.665 6  22661181.116
 22  5 25 12  0 59.0000000  0  8G10G15G16G18G23G26G27G29
  21767283.195   114387854.603 6  89133393.666 6  21767289.765
  23357164.348   122742729.796 6  95643687.210 6  23357169.898
  21986101.480   115537746.302 5  90029413.363 5  21986104.060
  21331487.305   112097721.650 6  87348874.865 6  21331489.895
  20442021.348   107423552.527 6  83706664.492 6  20442024.498
  21249716.390   111668020.411 6  87014042.927 6  21249723.500
  23646299.229   124262149.435 5  96827648.854 5  23646307.289
  22661555.356   119087283.328 6  92795286.254 6  22661560.416
 22  5 25 12  1  0.0000000  0  8G10G15G16G18G23G26G27G29
  21766804.853   114385339.644 6  89131433.965 6  21766811.393
  23357047.581   122742122.935 6  95643214.328 6  23357054.441
  21985824.471   115536289.588 5  90028278.250 5  21985826.971
  21331762.514   112099170.454 6  87350003.799 6  21331765.574
  20441889.110   107422855.171 6  83706121.099 6  20441891.810
  21249845.190   111668694.228 7  87014567.978 7  21249851.590
  23645731.898   124259163.197 5  96825321.915 5  23645739.548
  22661934.179   119089276.190 6  92796839.136 6  22661939.609
 22  5 25 12  1  1.0000000  0  8G10G15G16G18G23G26G27G29
  21766326.105   114382825.617 6  89129474.984 6  21766332.895
  23356934.038   122741517.166 6  95642742.301 6  23356939.218
  21985547.631   115534833.952 5  90027144.002 5  21985549.991
  21332038.452   112100619.921 6  87351133.256 6  21332041.382
  20441756.811   107422158.945 6  83705578.589 6  20441759.361
  21249973.199   111669369.150 6  87015093.889 6  21249980.199
  23645161.708   124256177.511 5  96822995.419 5  23645171.438
  22662313.744   119091269.844 6  92798392.623 6  22662318.814
 22  5 25 12  1  2.0000000  0  8G10G15G16G18G23G26G27G29
  21765847.750   114380312.216 6  89127516.490 6  21765854.500
  23356818.114   122740912.155 6  95642270.873 6  23356823.764
  21985270.515   115533379.120 5  90026010.370 5  21985273.065
  21332314.423   112102069.720 6  87352262.964 6  21332317.253
  20441624.609   107421463.544 6  83705036.721 6  20441627.169
  21250102.115   111670044.863 6  87015620.420 6  21250108.705
  23644595.424   124253192.012 5  96820669.049 5  23644602.784
  22662693.961   119093263.997 6  92799946.506 6  22662698.381
 22  5 25 12  1  3.0000000  0  8G10G15G16G18G23G26G27G29
  21765370.088   114377799.396 6  89125558.454 6  21765376.388
  23356702.607   122740307.877 6  95641799.999 6  23356708.847
  21984993.777   115531925.036 5  90024877.315 5  21984996.637
  21332590.370   112103519.831 6  87353392.917 6  21332593.230
  20441492.259   107420768.925 6  83704495.459 6  20441494.959
  21250230.768   111670721.326 6  87016147.533 6  21250237.518
  23644026.382   124250206.681 5  96818342.823 5  23644035.232
  22663074.422   119095258.609 6  92801500.743 6  22663077.732
 22  5 25 12  1  4.0000000  0  8G10G15G16G18G23G26G27G29
  21764892.198   114375287.179 6  89123600.884 6  21764898.238
  23356588.542   122739704.344 6  95641329.718 6  23356594.332
  21984716.576   115530471.718 5  90023744.866 5  21984720.166
  21332866.143   112104970.254 6  87354523.116 6  21332869.403
  20441360.168   107420075.086 6  83703954.806 6  20441363.198
  21250359.526   111671398.549 6  87016675.239 6  21250366.496
  23643459.511   124247221.571 5  96816016.759 5  23643466.851
  22663453.180   119097253.681 6  92803055.340 6  22663457.520
 22  5 25 12  1  5.0000000  0  8G10G15G16G18G23G26G27G29
  21764413.798   114372775.588 6  89121643.802 6  21764420.218
  23356473.566   122739101.565 6  95640860.025 6  23356479.916
  21984441.508   115529019.188 5  90022613.021 5  21984443.358
  21333142.333   112106421.005 6  87355653.584 6  21333145.353
  20441228.226   107419382.067 6  83703414.791 6  20441231.046
  21250488.794   111672076.575 6  87017203.571 6  21250495.504
  23642890.160   124244236.643 5  96813690.856 5  23642899.150
  22663832.432   119099249.238 6  92804610.317 6  22663837.312
 22  5 25 12  1  6.0000000  0  8G10G15G16G18G23G26G27G29
  21763935.980   114370264.430 6  89119687.058 6  21763942.730
  23356359.510   122738499.354 6  95640390.765 6  23356364.500
  21984164.991   115527567.263 5  90021481.646 5  21984167.121
  21333418.457   112107871.920 6  87356784.151 6  21333421.197
  20441096.638   107418689.671 6  83702875.268 6  20441099.248
  21250617.609   111672755.185 6  87017732.359 6  21250624.649
  23642322.506   124241251.750 5  96811364.969 5  23642331.076
  22664212.212   119101245.112 6  92806165.539 6  22664217.292
 22  5 25 12  1  7.0000000  0  8G10G15G16G18G23G26G27G29
  21763458.398   114367753.783 6  89117730.714 6  21763464.808
  23356244.419   122737897.820 6  95639922.035 6  23356250.539
  21983888.586   115526116.012 5  90020350.814 5  21983891.426
  21333694.275   112109323.065 6  87357914.911 6  21333697.445
  20440965.077   107417997.997 6  83702336.298 6  20440967.557
  21250746.609   111673434.505 6  87018261.691 6  21250753.809
  23641754.309   124238266.950 5  96809039.149 5  23641762.659
  22664591.345   119103241.363 6  92807721.057 6  22664597.105
 22  5 25 12  1  8.0000000  0  8G10G15G16G18G23G26G27G29
  21762980.748   114365243.665 7  89115774.775 7  21762987.428
  23356129.824   122737296.918 6  95639453.808 6  23356136.344
  21983613.022   115524665.470 5  90019220.507 5  21983614.732
  21333970.051   112110774.440 6  87359045.856 6  21333973.881
  20440833.675   107417307.042 6  83701797.891 6  20440836.325
  21250876.479   111674114.498 6  87018791.556 6  21250883.179
  23641185.513   124235282.283 5  96806713.456 5  23641195.053
  22664971.949   119105237.978 6  92809276.855 6  22664977.259
 22  5 25 12  1  9.0000000  0  8G10G15G16G18G23G26G27G29
  21762503.005   114362734.042 7  89113819.228 7  21762509.795
  23356016.017   122736696.676 6  95638986.086 6  23356022.027
  21983336.653   115523215.576 5  90018090.723 5  21983338.353
  21334247.065   112112226.043 6  87360176.977 6  21334250.145
  20440702.066   107416616.771 6  83701260.017 6  20440704.836
  21251006.601   111674795.154 6  87019321.944 6  21251012.691
  23640617.307   124232297.683 5  96804387.800 5  23640627.727
  22665351.774   119107234.970 6  92810832.953 6  22665357.234
 22  5 25 12  1 10.0000000  0  8G10G15G16G18G23G26G27G29
  21762025.948   114360225.087 7  89111864.198 7  21762032.368
  23355902.050   122736097.231 6  95638518.989 6  23355907.880
  21983060.004   115521766.516 5  90016961.585 5  21983063.214
  21334523.195   112113678.022 6  87361308.389 6  21334526.345
  20440570.230   107415927.360 6  83700722.813 6  20440573.860
  21251135.758   111675476.662 7  87019852.984 7  21251142.568
  23640049.746   124229313.354 5  96802062.353 5  23640059.366
  22665731.447   119109232.497 6  92812389.459 6  22665737.347
 22  5 25 12  1 11.0000000  0  8G10G15G16G18G23G26G27G29
  21761548.657   114357716.547 7  89109909.497 7  21761554.987
  23355787.611   122735498.326 6  95638052.313 6  23355793.701
  21982784.828   115520318.041 5  90015832.902 5  21982787.438
  21334799.903   112115130.132 6  87362439.898 6  21334803.023
  20440439.541   107415238.554 6  83700186.072 6  20440442.281
  21251265.721   111676158.731 7  87020384.463 7  21251272.201
  23639483.039   124226329.032 5  96799736.904 5  23639491.319
  22666112.768   119111230.285 6  92813946.178 6  22666117.568
 22  5 25 12  1 12.0000000  0  8G10G15G16G18G23G26G27G29
  21761071.559   114355208.299 7  89107955.025 7  21761077.599
  23355673.402   122734899.894 6  95637585.998 6  23355679.812
  21982509.456   115518870.007 5  90014704.565 5  21982512.166
  21335075.688   112116582.252 6  87363571.418 6  21335079.038
  20440309.095   107414550.227 6  83699649.726 6  20440311.455
  21251395.114   111676841.260 7  87020916.303 7  21251402.184
  23638914.885   124223344.591 5  96797411.367 5  23638923.395
  22666492.557   119113228.241 6  92815503.020 6  22666497.847
 22  5 25 12  1 13.0000000  0  8G10G15G16G18G23G26G27G29
  21760594.139   114352700.801 6  89106001.131 6  21760600.469
  23355560.815   122734302.317 6  95637120.358 6  23355566.045
  21982234.460   115517422.920 5  90013576.977 5  21982236.580
  21335352.187   112118034.847 6  87364703.313 6  21335355.387
  20440178.347   107413862.849 6  83699114.104 6  20440180.697
  21251524.984   111677524.713 6  87021448.861 6  21251532.204
  23638346.988   124220360.465 5  96795086.070 5  23638355.088
  22666872.412   119115226.827 6  92817060.357 6  22666878.412
 22  5 25 12  1 14.0000000  0  8G10G15G16G18G23G26G27G29
  21760117.160   114350193.753 6  89104047.591 6  21760123.520
  23355447.433   122733705.337 6  95636655.177 6  23355452.393
  21981958.971   115515976.442 5  90012449.842 5  21981961.591
  21335628.955   112119487.589 6  87365835.315 6  21335631.715
  20440047.461   107413176.118 6  83698578.984 6  20440050.121
  21251655.562   111678208.774 6  87021981.896 6  21251662.412
  23637779.634   124217376.402 5  96792760.842 5  23637788.294
  22667253.295   119117225.726 6  92818617.931 6  22667258.385
 22  5 25 12  1 15.0000000  0  8G10G15G16G18G23G26G27G29
  21759640.475   114347687.430 7  89102094.612 7  21759646.555
  23355332.556   122733109.204 6  95636190.666 6  23355338.856
  21981684.152   115514530.848 5  90011323.394 5  21981686.022
  21335905.229   112120940.776 6  87366967.668 6  21335908.279
  20439916.970   107412490.286 6  83698044.577 6  20439919.820
  21251785.375   111678893.721 6  87022515.619 6  21251792.865
  23637212.600   124214392.613 5  96790435.824 5  23637220.150
  22667633.915   119119225.200 6  92820175.961 6  22667638.565
 22  5 25 12  1 16.0000000  0  8G10G15G16G18G23G26G27G29
  21759163.284   114345181.689 7  89100142.090 7  21759169.734
  23355219.837   122732513.819 6  95635726.720 6  23355225.477
  21981408.708   115513086.003 5  90010197.565 5  21981411.268
  21336181.866   112122394.270 6  87368100.263 6  21336185.086
  20439786.725   107411805.260 6  83697510.793 6  20439789.155
  21251916.411   111679579.434 6  87023049.938 6  21251923.291
  23636643.288   124211409.054 5  96788110.960 5  23636652.828
  22668014.150   119121225.134 6  92821734.343 6  22668019.550
 22  5 25 12  1 17.0000000  0  8G10G15G16G18G23G26G27G29
  21758686.842   114342676.358 7  89098189.886 7  21758692.992
  23355107.669   122731918.982 6  95635263.219 6  23355112.699
  21981133.766   115511641.747 5  90009072.171 5  21981136.006
  21336458.586   112123847.888 6  87369232.954 6  21336461.616
  20439656.127   107411120.812 6  83696977.456 6  20439658.967
  21252047.235   111680265.695 6  87023584.686 6  21252053.895
  23636075.293   124208425.469 5  96785786.087 5  23636084.493
  22668395.067   119123225.340 6  92823292.950 6  22668400.097
 22  5 25 12  1 18.0000000  0  8G10G15G16G18G23G26G27G29
  21758210.061   114340171.525 7  89096238.071 7  21758216.241
  23354994.360   122731324.789 6  95634800.209 6  23354998.990
  21980859.642   115510198.166 5  90007947.294 5  21980861.382
  21336734.815   112125301.727 6  87370365.812 6  21336738.055
  20439526.071   107410437.081 6  83696444.671 6  20439528.991
  21252178.112   111680952.659 6  87024119.973 6  21252184.742
  23635508.322   124205441.966 5  96783461.279 5  23635516.762
  22668775.470   119125225.922 6  92824851.833 6  22668780.740
 22  5 25 12  1 19.0000000  0  8G10G15G16G18G23G26G27G29
  21757733.546   114337667.378 7  89094286.798 7  21757739.816
  23354881.047   122730731.385 6  95634337.822 6  23354886.467
  21980584.750   115508755.390 5  90006823.063 5  21980587.350
  21337011.583   112126755.925 6  87371498.959 6  21337015.093
  20439396.386   107409754.188 6  83695912.550 6  20439398.956
  21252308.924   111681640.435 6  87024655.905 6  21252315.624
  23634940.260   124202458.707 5  96781136.682 5  23634948.970
  22669156.755   119127227.020 6  92826411.136 6  22669161.535
 22  5 25 12  1 20.0000000  0  8G10G15G16G18G23G26G27G29
  21757256.787   114335163.766 6  89092335.913 6  21757263.217
  23354767.057   122730138.626 6  95633875.937 6  23354773.747
  21980310.281   115507313.313 5  90005699.374 5  21980312.431
  21337288.439   112128210.384 6  87372632.292 6  21337291.429
  20439267.005   107409072.021 6  83695380.992 6  20439269.225
  21252438.914   111682328.869 6  87025192.348 6  21252446.534
  23634373.233   124199475.595 5  96778812.169 5  23634381.153
  22669537.273   119129228.507 6  92827970.720 6  22669542.423
 22  5 25 12  1 21.0000000  0  8G10G15G16G18G23G26G27G29
  21756781.061   114332660.804 6  89090385.568 6  21756787.271
  23354654.569   122729546.806 6  95633414.783 6  23354660.939
  21980036.480   115505872.201 5  90004576.406 5  21980039.120
  21337565.408   112129665.277 6  87373765.960 6  21337568.348
  20439136.367   107408390.763 6  83694850.126 6  20439139.457
  21252571.320   111683018.188 5  87025729.476 5  21252577.800
  23633804.949   124196492.798 4  96776487.917 4  23633813.089
  22669918.483   119131230.577 6  92829530.787 6  22669923.633
 22  5 25 12  1 22.0000000  0  8G10G15G16G18G23G26G27G29
  21756304.904   114330158.727 6  89088435.898 6  21756311.014
  23354541.805   122728955.853 6  95632954.294 6  23354548.855
  21979761.996   115504431.957 4  90003454.156 4  21979764.866
  21337842.545   112131120.654 6  87374900.048 6  21337845.425
  20439007.268   107407710.502 6  83694320.065 6  20439009.888
  21252702.098   111683708.532 6  87026267.394 6  21252708.998
  23633237.430   124193510.320 4  96774163.896 4  23633246.330
  22670299.150   119133233.374 6  92831091.387 6  22670304.380
 22  5 25 12  1 23.0000000  0  8G10G15G16G18G23G26G27G29
  21755828.290   114327656.964 6  89086486.485 6  21755834.830
  23354430.231   122728365.416 6  95632494.192 6  23354435.871
  21979488.409   115502992.256 5  90002332.291 5  21979490.289
  21338119.247   112132576.139 6  87376034.189 6  21338122.447
  20438878.441   107407030.792 6  83693790.434 6  20438880.451
  21252832.889   111684399.347 6  87026805.717 6  21252840.779
  23632668.847   124190527.773 4  96771839.929 4  23632678.647
  22670681.158   119135236.331 6  92832652.140 6  22670685.618
 22  5 25 12  1 24.0000000  0  8G10G15G16G18G23G26G27G29
  21755352.148   114325155.442 6  89084537.252 6  21755358.708
  23354317.407   122727775.353 5  95632034.412 5  23354323.737
  21979214.258   115501552.970 5  90001210.786 5  21979216.398
  21338396.439   112134031.552 6  87377168.281 6  21338399.499
  20438749.014   107406351.499 6  83693261.127 6  20438751.034
  21252964.750   111685090.601 6  87027344.357 6  21252972.320
  23632101.409   124187545.127 4  96769515.787 4  23632111.289
  22671062.254   119137239.412 6  92834212.983 6  22671067.194
 22  5 25 12  1 25.0000000  0  8G10G15G16G18G23G26G27G29
  21754876.234   114322654.489 6  89082588.457 6  21754882.764
  23354205.852   122727186.012 5  95631575.188 5  23354211.882
  21978940.373   115500114.414 5  90000089.816 5  21978942.353
  21338673.021   112135487.260 6  87378302.583 6  21338676.321
  20438619.768   107405672.971 6  83692732.408 6  20438622.108
  21253096.347   111685782.568 5  87027883.528 5  21253104.137
  23631533.908   124184562.627 4  96767191.730 4  23631543.788
  22671444.019   119139242.891 6  92835774.143 6  22671448.589
 22  5 25 12  1 26.0000000  0  8G10G15G16G18G23G26G27G29
  21754400.115   114320153.975 6  89080640.010 6  21754406.895
  23354094.257   122726597.235 5  95631116.393 5  23354099.377
  21978666.000   115498676.477 5  89998969.345 5  21978669.120
  21338950.236   112136943.123 6  87379437.026 6  21338953.376
  20438490.366   107404995.083 6  83692204.169 6  20438493.176
  21253228.321   111686475.148 5  87028423.216 5  21253235.661
  23630966.811   124181580.129 4  96764867.723 4  23630975.991
  22671825.679   119141246.695 6  92837335.543 6  22671829.779
 22  5 25 12  1 27.0000000  0  8G10G15G16G18G23G26G27G29
  21753924.707   114317654.338 7  89078692.238 7  21753931.337
  23353981.982   122726009.473 5  95630658.394 5  23353988.102
  21978393.291   115497239.594 5  89997849.680 5  21978395.481
  21339227.991   112138399.556 6  87380571.905 6  21339230.581
  20438361.224   107404318.234 6  83691676.756 6  20438364.424
  21253360.557   111687168.781 5  87028963.707 5  21253367.597
  23630399.130   124178598.116 4  96762544.061 4  23630408.560
  22672205.965   119143251.231 6  92838897.517 6  22672211.235
 22  5 25 12  1 28.0000000  0  8G10G15G16G18G23G26G27G29
  21753449.033   114315154.899 7  89076744.622 7  21753455.603
  23353869.967   122725422.054 5  95630200.659 5  23353876.267
  21978119.293   115495803.054 5  89996730.311 5  21978122.503
  21339505.407   112139855.905 6  87381706.725 6  21339507.727
  20438232.724   107403641.799 6  83691149.650 6  20438235.574
  21253493.080   111687862.746 5  87029504.459 5  21253499.520
  23629832.163   124175615.879 4  96760220.239 4  23629840.573
  22672588.090   119145255.827 6  92840459.540 6  22672592.930
 22  5 25 12  1 29.0000000  0  8G10G15G16G18G23G26G27G29
  21752973.631   114312656.110 7  89074797.505 7  21752980.181
  23353758.292   122724835.423 5  95629743.559 5  23353764.732
  21977846.413   115494367.370 5  89995611.583 5  21977849.903
  21339782.424   112141312.677 6  87382841.871 6  21339785.164
  20438104.527   107402966.225 6  83690623.227 6  20438106.937
  21253625.222   111688557.583 5  87030045.877 5  21253631.862
  23629265.231   124172633.937 5  96757896.635 5  23629273.191
  22672969.756   119147260.984 6  92842021.984 6  22672974.316
 22  5 25 12  1 30.0000000  0  8G10G15G16G18G23G26G27G29
  21752498.331   114310157.718 7  89072850.705 7  21752504.651
  23353646.856   122724249.331 6  95629286.863 6  23353653.056
  21977573.380   115492932.213 5  89994493.302 5  21977575.640
  21340059.588   112142769.482 6  87383977.045 6  21340062.458
  20437976.057   107402291.213 6  83690097.242 6  20437978.607
  21253757.374   111689252.932 6  87030587.708 6  21253764.544
  23628697.613   124169651.904 5  96755572.991 5  23628705.003
  22673350.771   119149266.373 6  92843584.628 6  22673355.961
 22  5 25 12  1 31.0000000  0  8G10G15G16G18G23G26G27G29
  21752023.010   114307660.066 7  89070904.503 7  21752029.230
  23353535.573   122723664.121 5  95628830.847 5  23353541.793
  21977300.877   115491498.001 5  89993375.709 5  21977304.247
  21340337.148   112144226.765 6  87385112.585 6  21340339.518
  20437847.649   107401617.144 6  83689572.001 6  20437849.989
  21253889.037   111689949.184 6  87031130.251 6  21253896.807
  23628130.076   124166670.204 5  96753249.607 5  23628137.426
  22673732.554   119151272.365 6  92845147.735 6  22673737.894
 22  5 25 12  1 32.0000000  0  8G10G15G16G18G23G26G27G29
  21751547.659   114305162.930 7  89068958.683 7  21751554.059
  23353423.621   122723079.583 6  95628375.375 6  23353430.761
  21977028.189   115490064.437 5  89992258.665 5  21977030.439
  21340614.522   112145684.302 6  87386248.334 6  21340616.882
  20437719.776   107400943.776 6  83689047.302 6  20437722.016
  21254021.521   111690646.120 6  87031673.311 6  21254029.251
  23627563.930   124163688.666 4  96750926.338 4  23627569.790
  22674114.270   119153278.750 6  92846711.145 6  22674119.360
 22  5 25 12  1 33.0000000  0  8G10G15G16G18G23G26G27G29
  21751072.521   114302666.611 7  89067013.499 7  21751078.921
  23353312.455   122722495.973 6  95627920.619 6  23353319.855
  21976755.108   115488631.849 5  89991142.360 5  21976757.848
  21340891.836   112147142.336 6  87387384.459 6  21340894.366
  20437591.213   107400271.408 6  83688523.378 6  20437594.163
  21254154.569   111691344.024 6  87032217.129 6  21254162.199
  23626995.493   124160707.474 5  96748603.331 5  23627003.663
  22674496.407   119155285.783 6  92848275.058 6  22674501.287
 22  5 25 12  1 34.0000000  0  8G10G15G16G18G23G26G27G29
  21750597.686   114300170.852 7  89065068.771 7  21750603.966
  23353202.500   122721913.113 6  95627466.456 6  23353208.220
  21976482.938   115487200.015 5  89990026.641 5  21976485.478
  21341169.048   112148600.660 6  87388520.807 6  21341171.508
  20437463.849   107399599.826 6  83688000.073 6  20437466.519
  21254288.162   111692042.673 6  87032761.528 6  21254295.062
  23626429.215   124157726.491 4  96746280.512 4  23626436.105
  22674878.067   119157293.272 6  92849839.332 6  22674883.247
 22  5 25 12  1 35.0000000  0  8G10G15G16G18G23G26G27G29
  21750123.027   114297675.422 6  89063124.272 6  21750129.147
  23353091.280   122721330.675 6  95627012.600 6  23353097.370
  21976210.598   115485768.642 5  89988911.296 5  21976212.768
  21341446.620   112150059.022 6  87389657.201 6  21341449.620
  20437335.946   107398928.735 6  83687477.144 6  20437338.586
  21254421.396   111692741.798 6  87033306.308 6  21254428.586
  23625861.573   124154745.396 3  96743957.610 3  23625869.583
  22675261.030   119159300.935 6  92851403.736 6  22675265.250
 22  5 25 12  1 36.0000000  0  8G10G15G16G18G23G26G27G29
  21749648.015   114295180.612 6  89061180.261 6  21749654.515
  23352980.630   122720748.964 6  95626559.325 6  23352986.720
  21975938.824   115484338.086 5  89987796.579 5  21975940.294
  21341723.826   112151517.716 6  87390793.843 6  21341727.146
  20437209.229   107398258.450 6  83686954.857 6  20437211.089
  21254554.942   111693441.713 6  87033851.698 6  21254561.642
  23625295.107   124151764.505 4  96741634.819 4  23625301.387
  22675642.825   119161309.095 6  92852968.517 6  22675647.355
 22  5 25 12  1 37.0000000  0  8G10G15G16G18G23G26G27G29
  21749173.629   114292686.174 6  89059236.548 6  21749179.689
  23352869.827   122720167.820 5  95626106.479 5  23352876.157
  21975666.556   115482908.046 5  89986682.272 5  21975668.486
  21342001.542   112152976.512 6  87391930.557 6  21342004.912
  20437081.260   107397588.740 6  83686433.002 6  20437083.510
  21254688.550   111694142.187 6  87034397.504 6  21254695.050
  23624727.719   124148783.568 4  96739312.031 4  23624734.669
  22676025.144   119163317.489 6  92854533.512 6  22676029.294
 22  5 25 12  1 38.0000000  0  8G10G15G16G18G23G26G27G29
  21748699.010   114290192.461 6  89057293.376 6  21748705.270
  23352760.106   122719587.499 5  95625654.285 5  23352765.786
  21975394.803   115481478.917 5  89985568.634 5  21975397.183
  21342279.129   112154435.707 6  87393067.593 6  21342282.499
  20436954.094   107396919.927 6  83685911.831 6  20436956.474
  21254822.489   111694843.552 6  87034944.028 6  21254828.649
  23624159.888   124145802.964 4  96736989.429 4  23624167.328
  22676407.275   119165326.426 6  92856098.904 6  22676411.725
 22  5 25 12  1 39.0000000  0  8G10G15G16G18G23G26G27G29
  21748224.163   114287699.410 7  89055350.737 7  21748231.113
  23352649.566   122719008.050 6  95625202.786 6  23352655.436
  21975123.419   115480050.562 5  89984455.659 5  21975124.809
  21342557.444   112155895.311 6  87394204.945 6  21342560.034
  20436827.018   107396252.002 6  83685391.355 6  20436829.178
  21254955.500   111695545.860 6  87035491.269 6  21254962.040
  23623593.005   124142822.648 5  96734667.112 5  23623600.995
  22676789.276   119167335.961 6  92857664.753 6  22676793.966
 22  5 25 12  1 40.0000000  0  8G10G15G16G18G23G26G27G29
  21747750.161   114285207.096 6  89053408.683 6  21747756.681
  23352539.704   122718429.378 6  95624751.867 6  23352545.054
  21974850.751   115478623.116 5  89983343.401 5  21974853.241
  21342835.034   112157355.354 6  87395342.640 6  21342837.854
  20436700.461   107395584.987 6  83684871.618 6  20436702.791
  21255089.382   111696248.749 6  87036038.994 6  21255095.632
  23623024.565   124139842.629 5  96732345.020 5  23623033.175
  22677172.477   119169346.061 6  92859231.073 6  22677176.507
 22  5 25 12  1 41.0000000  0  8G10G15G16G18G23G26G27G29
  21747276.189   114282715.161 6  89051466.937 6  21747282.299
  23352429.333   122717851.300 6  95624301.412 6  23352436.053
  21974579.115   115477196.246 5  89982231.538 5  21974581.215
  21343112.501   112158815.470 6  87396480.396 6  21343115.541
  20436573.843   107394918.528 6  83684352.297 6  20436575.923
  21255222.819   111696952.384 7  87036587.265 7  21255229.109
  23622457.937   124136862.531 5  96730022.880 5  23622466.027
  22677554.832   119171356.390 6  92860797.553 6  22677558.812
 22  5 25 12  1 42.0000000  0  8G10G15G16G18G23G26G27G29
  21746802.472   114280223.775 6  89049525.595 6  21746808.242
  23352320.244   122717273.894 6  95623851.493 6  23352325.354
  21974307.950   115475770.112 5  89981120.264 5  21974309.870
  21343391.131   112160275.894 6  87397618.380 6  21343393.601
  20436446.399   107394252.842 6  83683833.585 6  20436449.039
  21255357.084   111697656.725 7  87037136.105 7  21255363.334
  23621890.400   124133882.619 5  96727700.857 5  23621899.170
  22677936.717   119173367.159 6  92862364.388 6  22677941.537
 22  5 25 12  1 43.0000000  0  8G10G15G16G18G23G26G27G29
  21746327.969   114277733.040 6  89047584.761 6  21746334.429
  23352209.642   122716697.282 6  95623402.183 6  23352215.922
  21974036.821   115474344.776 5  89980009.613 5  21974038.631
  21343669.245   112161736.652 6  87398756.628 6  21343671.405
  20436320.060   107393587.980 6  83683315.516 6  20436322.420
  21255490.903   111698361.855 7  87037685.555 7  21255497.463
  23621323.306   124130902.912 5  96725379.015 5  23621332.236
  22678318.653   119175378.429 6  92863931.603 6  22678324.323
 22  5 25 12  1 44.0000000  0  8G10G15G16G18G23G26G27G29
  21745854.540   114275242.639 6  89045644.197 6  21745860.620
  23352100.139   122716121.142 6  95622953.242 6  23352105.959
  21973765.206   115472919.935 5  89978899.349 5  21973767.436
  21343947.048   112163197.447 6  87399894.918 6  21343949.688
  20436193.311   107392923.649 6  83682797.853 6  20436196.221
  21255625.027   111699067.501 7  87038235.406 7  21255631.797
  23620756.342   124127923.120 5  96723057.095 5  23620764.552
  22678702.048   119177389.884 6  92865498.977 6  22678707.098
 22  5 25 12  1 45.0000000  0  8G10G15G16G18G23G26G27G29
  21745380.952   114272752.788 6  89043704.054 6  21745386.692
  23351990.463   122715545.679 6  95622504.835 6  23351996.673
  21973494.370   115471495.830 5  89977789.646 5  21973497.020
  21344224.740   112164658.524 6  87401033.411 6  21344227.520
  20436067.209   107392260.043 6  83682280.758 6  20436069.839
  21255759.103   111699773.840 7  87038785.796 7  21255766.053
  23620190.867   124124943.501 5  96720735.325 5  23620197.827
  22679084.347   119179401.776 6  92867066.673 6  22679089.817
 22  5 25 12  1 46.0000000  0  8G10G15G16G18G23G26G27G29
  21744906.887   114270263.776 6  89041764.570 6  21744912.957
  23351881.162   122714971.200 6  95622057.188 6  23351887.332
  21973223.721   115470072.717 5  89976680.740 5  21973226.041
  21344503.067   112166120.134 6  87402172.326 6  21344505.687
  20435941.278   107391597.482 6  83681764.476 6  20435943.838
  21255893.581   111700481.181 7  87039336.971 7  21255900.891
  23619622.311   124121964.296 5  96718413.855 5  23619630.771
  22679468.297   119181414.351 6  92868634.910 6  22679472.917
 22  5 25 12  1 47.0000000  0  8G10G15G16G18G23G26G27G29
  21744433.662   114267775.330 6  89039825.522 6  21744439.492
  23351772.086   122714397.425 6  95621610.088 6  23351778.266
  21972953.113   115468650.322 5  89975572.386 5  21972955.213
  21344780.906   112167582.031 6  87403311.468 6  21344783.666
  20435814.544   107390935.655 6  83681248.768 6  20435817.774
  21256028.701   111701189.251 7  87039888.710 7  21256035.621
  23619056.788   124118985.228 5  96716092.518 5  23619063.548
  22679851.501   119183427.375 6  92870203.502 6  22679855.771
 22  5 25 12  1 48.0000000  0  8G10G15G16G18G23G26G27G29
  21743960.254   114265287.269 6  89037886.774 6  21743965.894
  23351663.342   122713824.177 6  95621163.408 6  23351668.902
  21972682.748   115467228.489 5  89974464.462 5  21972684.928
  21345059.215   112169044.019 6  87404450.677 6  21345062.175
  20435689.345   107390274.422 6  83680733.521 6  20435691.615
  21256163.781   111701897.878 7  87040440.888 7  21256170.351
  23618489.800   124116006.130 5  96713771.162 5  23618497.120
  22680234.201   119185440.642 6  92871772.275 6  22680239.041
 22  5 25 12  1 49.0000000  0  8G10G15G16G18G23G26G27G29
  21743486.525   114262800.085 6  89035948.710 6  21743492.665
  23351552.856   122713251.940 6  95620717.507 6  23351560.186
  21972412.458   115465807.717 5  89973357.356 5  21972414.228
  21345337.234   112170506.600 6  87405590.355 6  21345340.584
  20435563.192   107389614.252 6  83680219.103 6  20435566.122
  21256298.745   111702607.535 7  87040993.864 7  21256305.375
  23617922.038   124113027.517 5  96711450.157 5  23617930.308
  22680617.938   119187454.645 6  92873341.624 6  22680622.218
 22  5 25 12  1 50.0000000  0  8G10G15G16G18G23G26G27G29
  21743013.164   114260313.501 6  89034011.111 6  21743019.434
  23351444.463   122712680.445 6  95620272.182 6  23351450.933
  21972142.369   115464387.686 5  89972250.832 5  21972143.849
  21345615.972   112171969.497 6  87406730.269 6  21345618.832
  20435438.143   107388954.873 6  83679705.302 6  20435440.843
  21256433.939   111703317.946 7  87041547.433 7  21256440.719
  23617355.349   124110049.077 5  96709129.295 5  23617363.259
  22681000.635   119189469.113 6  92874911.330 6  22681005.835
 22  5 25 12  1 51.0000000  0  8G10G15G16G18G23G26G27G29
  21742540.547   114257827.503 6  89032073.974 6  21742546.427
  23351335.531   122712109.674 6  95619827.437 6  23351342.421
  21971872.085   115462968.420 5  89971144.923 5  21971874.195
  21345894.131   112173432.676 6  87407870.406 6  21345897.631
  20435313.207   107388296.274 6  83679192.109 6  20435315.147
  21256569.439   111704029.129 7  87042101.595 7  21256575.989
  23616788.597   124107070.814 5  96706808.586 5  23616796.507
  22681384.984   119191484.015 6  92876481.386 6  22681389.204
 22  5 25 12  1 52.0000000  0  8G10G15G16G18G23G26G27G29
  21742067.613   114255342.104 6  89030137.305 6  21742073.513
  23351227.525   122711539.649 6  95619383.255 6  23351233.975
  21971602.005   115461549.911 5  89970039.600 5  21971604.445
  21346172.800   112174896.173 6  87409010.793 6  21346175.960
  20435187.462   107387638.456 6  83678679.526 6  20435190.172
  21256704.349   111704741.053 7  87042656.344 7  21256711.529
  23616221.366   124104092.746 5  96704488.003 5  23616229.816
  22681768.233   119193499.404 6  92878051.813 6  22681772.733
 22  5 25 12  1 53.0000000  0  8G10G15G16G18G23G26G27G29
  21741595.236   114252857.359 6  89028201.141 6  21741600.636
  23351119.929   122710970.402 6  95618939.698 6  23351125.969
  21971332.012   115460132.227 5  89968934.919 5  21971334.812
  21346451.466   112176360.026 6  87410151.454 6  21346454.766
  20435062.410   107386981.486 6  83678167.602 6  20435065.240
  21256840.551   111705453.787 7  87043211.719 7  21256847.131
  23615654.968   124101114.924 5  96702167.623 5  23615663.598
  22682151.460   119195515.277 6  92879622.617 6  22682156.500
 22  5 25 12  1 54.0000000  0  8G10G15G16G18G23G26G27G29
  21741121.983   114250373.128 6  89026265.381 6  21741127.893
  23351011.446   122710401.831 6  95618496.650 6  23351017.776
  21971062.730   115458715.228 5  89967830.746 5  21971064.880
  21346730.012   112177824.119 6  87411292.310 6  21346733.202
  20434937.987   107386325.220 6  83677656.223 6  20434940.127
  21256976.479   111706167.213 7  87043767.636 7  21256982.829
  23615088.630   124098137.174 5  96699847.302 5  23615096.520
  22682534.880   119197531.531 6  92881193.719 6  22682540.120
 22  5 25 12  1 55.0000000  0  8G10G15G16G18G23G26G27G29
  21740649.214   114247889.568 6  89024330.140 6  21740655.164
  23350903.419   122709834.064 6  95618054.232 6  23350909.629
  21970793.495   115457299.072 5  89966727.248 5  21970795.125
  21347008.558   112179288.601 6  87412433.466 6  21347011.688
  20434813.279   107385669.827 6  83677145.527 6  20434815.819
  21257111.956   111706881.479 7  87044324.207 7  21257118.696
  23614522.568   124095159.732 5  96697527.230 5  23614529.858
  22682919.391   119199548.342 6  92882765.257 6  22682923.781
 22  5 25 12  1 56.0000000  0  8G10G15G16G18G23G26G27G29
  21740176.675   114245406.617 6  89022395.377 6  21740182.665
  23350795.943   122709267.036 6  95617612.395 6  23350801.793
  21970524.539   115455883.689 5  89965624.353 5  21970526.669
  21347287.659   112180753.384 6  87413574.851 6  21347290.459
  20434688.341   107385015.221 6  83676635.451 6  20434690.831
  21257247.914   111707596.500 7  87044881.362 7  21257254.814
  23613955.331   124092182.457 5  96695207.258 5  23613963.371
  22683303.536   119201565.617 6  92884337.159 6  22683307.616
 22  5 25 12  1 57.0000000  0  8G10G15G16G18G23G26G27G29
  21739704.754   114242924.363 6  89020461.151 6  21739710.304
  23350688.192   122708700.851 6  95617171.213 6  23350693.922
  21970254.663   115454469.147 5  89964522.126 5  21970257.063
  21347566.553   112182218.593 6  87414716.572 6  21347569.413
  20434564.577   107384361.513 6  83676126.065 6  20434566.537
  21257384.302   111708312.387 7  87045439.198 7  21257391.152
  23613388.414   124089205.468 5  96692887.540 5  23613396.924
  22683686.850   119203583.458 6  92885909.493 6  22683691.750
 22  5 25 12  1 58.0000000  0  8G10G15G16G18G23G26G27G29
  21739231.924   114240442.576 7  89018527.290 7  21739238.054
  23350580.363   122708135.267 6  95616730.497 6  23350586.303
  21969985.779   115453055.239 5  89963420.370 5  21969987.709
  21347845.225   112183683.957 6  87415858.406 6  21347848.335
  20434439.816   107383708.443 6  83675617.178 6  20434442.336
  21257520.384   111709028.880 7  87045997.502 7  21257527.594
  23612821.654   124086228.516 5  96690567.848 5  23612830.904
  22684070.986   119205601.602 6  92887482.072 6  22684075.686
 22  5 25 12  1 59.0000000  0  8G10G15G16G18G23G26G27G29
  21738759.877   114237961.032 7  89016593.625 7  21738765.857
  23350473.241   122707570.059 6  95616290.077 6  23350478.791
  21969716.455   115451641.754 5  89962318.945 5  21969718.975
  21348124.377   112185149.282 6  87417000.219 6  21348127.327
  20434315.681   107383055.818 6  83675108.641 6  20434318.131
  21257656.876   111709745.791 7  87046556.134 7  21257663.806
  23612254.737   124083251.413 5  96688248.021 5  23612263.217
  22684455.299   119207619.871 6  92889054.747 6  22684459.929
 22  5 25 12  2  0.0000000  0  8G10G15G16G18G23G26G27G29
  21738287.907   114235479.937 7  89014660.305 7  21738293.817
  23350365.714   122707005.446 6  95615850.118 6  23350371.244
  21969447.520   115450228.879 5  89961218.018 5  21969449.940
  21348403.166   112186614.771 6  87418142.169 6  21348405.846
  20434192.115   107382403.826 6  83674600.599 6  20434194.245
  21257793.801   111710463.334 7  87047115.257 7  21257800.431
  23611689.368   124080274.361 5  96685928.261 5  23611697.078
  22684839.211   119209638.476 6  92890627.681 6  22684843.971
 22  5 25 12  2  1.0000000  0  8G10G15G16G18G23G26G27G29
  21737816.025   114232999.405 6  89012727.427 6  21737821.795
  23350258.631   122706441.554 6  95615410.727 6  23350263.881
  21969179.155   115448816.746 5  89960117.651 5  21969181.545
  21348681.631   112188080.549 6  87419284.323 6  21348684.651
  20434067.761   107381752.609 6  83674093.153 6  20434070.211
  21257930.665   111711181.584 7  87047674.929 7  21257937.145
  23611122.616   124077297.443 5  96683608.583 5  23611130.296
  22685223.676   119211657.484 6  92892200.928 6  22685228.236
 22  5 25 12  2  2.0000000  0  8G10G15G16G18G23G26G27G29
  21737343.915   114230519.611 7  89010795.122 7  21737349.795
  23350150.718   122705878.512 6  95614971.989 6  23350156.838
  21968910.181   115447405.479 5  89959017.969 5  21968912.811
  21348960.792   112189546.756 6  87420426.822 6  21348964.212
  20433944.289   107381102.286 6  83673586.410 6  20433946.519
  21258067.256   111711900.716 7  87048235.295 7  21258073.926
  23610555.801   124074320.830 5  96681289.158 5  23610564.371
  22685607.971   119213677.068 6  92893774.631 6  22685612.761
 22  5 25 12  2  3.0000000  0  8G10G15G16G18G23G26G27G29
  21736871.811   114228040.257 7  89008863.158 7  21736878.131
  23350044.364   122705316.064 6  95614533.719 6  23350050.014
  21968641.633   115445994.836 5  89957918.778 5  21968644.843
  21349239.791   112191013.111 6  87421569.436 6  21349242.831
  20433820.846   107380452.617 6  83673080.169 6  20433822.756
  21258204.040   111712620.459 7  87048796.128 7  21258210.750
  23609989.931   124071344.305 5  96678969.771 5  23609997.731
  22685992.350   119215696.973 6  92895348.579 6  22685996.960
 22  5 25 12  2  4.0000000  0  8G10G15G16G18G23G26G27G29
  21736400.225   114225561.216 7  89006931.442 7  21736406.555
  23349937.317   122704754.071 6  95614095.802 6  23349943.257
  21968373.466   115444584.683 5  89956819.956 5  21968376.136
  21349519.143   112192479.498 6  87422712.071 6  21349522.153
  20433696.420   107379803.430 6  83672574.315 6  20433699.510
  21258341.237   111713340.685 7  87049357.338 7  21258347.947
  23609422.889   124068367.620 5  96676650.290 5  23609431.229
  22686376.804   119217717.061 6  92896922.664 6  22686381.674
 22  5 25 12  2  5.0000000  0  8G10G15G16G18G23G26G27G29
  21735928.984   114223082.822 6  89005000.226 6  21735934.974
  23349830.057   122704192.850 6  95613658.487 6  23349836.537
  21968105.136   115443175.333 5  89955721.754 5  21968107.636
  21349798.523   112193946.247 6  87423854.996 6  21349801.093
  20433573.017   107379155.089 6  83672069.111 6  20433576.157
  21258478.455   111714061.699 6  87049919.167 6  21258485.105
  23608856.785   124065391.206 5  96674331.010 5  23608865.035
  22686761.291   119219737.649 6  92898497.149 6  22686765.971
 22  5 25 12  2  6.0000000  0  8G10G15G16G18G23G26G27G29
  21735457.039   114220604.638 6  89003069.176 6  21735463.169
  23349723.262   122703631.979 6  95613221.454 6  23349729.832
  21967836.975   115441766.368 5  89954623.861 5  21967839.765
  21350077.186   112195412.901 6  87424997.843 6  21350079.846
  20433449.904   107378507.154 6  83671564.229 6  20433452.534
  21258615.445   111714783.102 6  87050481.301 6  21258622.385
  23608290.207   124062414.572 5  96672011.566 5  23608298.487
  22687145.757   119221758.323 6  92900071.691 6  22687150.577
 22  5 25 12  2  7.0000000  0  8G10G15G16G18G23G26G27G29
  21734985.454   114218126.825 7  89001138.416 7  21734991.684
  23349617.294   122703071.639 6  95612784.820 6  23349622.844
  21967568.865   115440357.939 5  89953526.381 5  21967571.615
  21350356.293   112196879.648 6  87426140.762 6  21350359.013
  20433327.169   107377859.764 6  83671059.776 6  20433329.159
  21258752.891   111715505.029 7  87051043.842 7  21258759.751
  23607724.564   124059437.885 5  96669692.061 5  23607731.634
  22687530.295   119223779.223 6  92901646.417 6  22687535.065
 22  5 25 12  2  8.0000000  0  8G10G15G16G18G23G26G27G29
  21734513.937   114215649.522 7  88999208.054 7  21734520.247
  23349511.108   122702511.928 6  95612348.690 6  23349516.598
  21967301.704   115438950.185 6  89952429.431 6  21967304.034
  21350635.190   112198346.608 6  87427283.847 6  21350638.130
  20433204.668   107377213.103 6  83670555.875 6  20433206.128
  21258890.555   111716227.630 7  87051606.907 7  21258897.185
  23607158.163   124056461.335 5  96667372.699 5  23607165.863
  22687914.793   119225800.480 6  92903221.415 6  22687919.903
 22  5 25 12  2  9.0000000  0  8G10G15G16G18G23G26G27G29
  21734042.915   114213172.962 7  88997278.264 7  21734049.125
  23349403.467   122701953.132 6  95611913.267 6  23349410.637
  21967033.798   115437543.340 5  89951333.187 5  21967035.708
  21350914.701   112199814.018 6  87428427.281 6  21350917.391
  20433081.516   107376567.343 6  83670052.692 6  20433083.566
  21259027.995   111716951.135 7  87052170.672 7  21259034.845
  23606592.071   124053485.076 5  96665053.526 5  23606598.971
  22688299.391   119227822.373 6  92904796.914 6  22688304.641
 22  5 25 12  2 10.0000000  0  8G10G15G16G18G23G26G27G29
  21733571.899   114210697.404 7  88995349.267 7  21733577.929
  23349298.210   122701395.431 6  95611478.693 6  23349304.160
  21966766.023   115436137.651 5  89950237.855 5  21966768.573
  21351194.261   112201282.155 6  87429571.278 6  21351196.891
  20432958.496   107375922.788 6  83669550.438 6  20432960.946
  21259166.445   111717675.788 7  87052735.331 7  21259172.775
  23606025.802   124050509.431 5  96662734.860 5  23606032.732
  22688683.962   119229845.106 6  92906373.065 6  22688689.482
 22  5 25 12  2 11.0000000  0  8G10G15G16G18G23G26G27G29
  21733100.757   114208222.300 7  88993420.613 7  21733106.747
  23349192.770   122700838.367 6  95611044.624 6  23349198.240
  21966498.656   115434732.592 5  89949143.006 5  21966501.116
  21351473.380   112202750.435 6  87430715.395 6  21351476.510
  20432835.716   107375278.870 6  83669048.683 6  20432837.926
  21259303.930   111718401.058 7  87053300.482 7  21259310.830
  23605460.502   124047533.818 5  96660416.192 5  23605467.512
  22689069.483   119231868.140 6  92907949.458 6  22689074.453
 22  5 25 12  2 12.0000000  0  8G10G15G16G18G23G26G27G29
  21732630.218   114205747.423 7  88991492.138 7  21732635.818
  23349086.848   122700281.647 6  95610610.816 6  23349092.358
  21966231.092   115433327.918 5  89948048.445 5  21966233.542
  21351752.924   112204218.643 6  87431859.445 6  21351755.774
  20432712.852   107374635.372 6  83668547.259 6  20432715.692
  21259442.287   111719126.717 7  87053865.929 7  21259448.987
  23604893.330   124044558.008 5  96658097.382 5  23604901.220
  22689454.414   119233891.283 6  92909525.922 6  22689459.304
 22  5 25 12  2 13.0000000  0  8G10G15G16G18G23G26G27G29
  21732159.235   114203273.398 6  88989564.330 6  21732165.245
  23348980.613   122699725.950 6  95610177.803 6  23348986.343
  21965964.486   115431924.270 5  89946954.702 5  21965966.886
  21352032.154   112205687.432 6  87433003.962 6  21352035.484
  20432591.017   107373992.908 6  83668046.641 6  20432593.227
  21259580.324   111719853.399 6  87054432.173 6  21259587.334
  23604326.870   124041582.642 5  96655778.916 5  23604334.550
  22689840.561   119235915.138 6  92911102.952 6  22689844.651
 22  5 25 12  2 14.0000000  0  8G10G15G16G18G23G26G27G29
  21731688.063   114200799.693 7  88987636.769 7  21731694.583
  23348875.128   122699170.664 6  95609745.116 6  23348880.258
  21965697.179   115430521.110 5  89945861.328 5  21965699.569
  21352311.779   112207156.253 6  87434148.499 6  21352314.659
  20432468.467   107373350.972 6  83667546.427 6  20432471.017
  21259718.840   111720580.552 6  87054998.785 6  21259725.830
  23603761.071   124038607.201 5  96653460.407 5  23603768.121
  22690225.198   119237939.173 6  92912680.115 6  22690229.778
 22  5 25 12  2 15.0000000  0  8G10G15G16G18G23G26G27G29
  21731217.317   114198326.563 7  88985709.656 7  21731224.027
  23348769.499   122698616.124 6  95609313.006 6  23348775.249
  21965430.184   115429118.701 5  89944768.534 5  21965432.624
  21352591.147   112208625.357 6  87435293.242 6  21352594.417
  20432346.854   107372709.788 6  83667046.804 6  20432349.024
  21259857.533   111721308.439 7  87055565.966 7  21259864.133
  23603194.326   124035631.916 5  96651141.980 5  23603201.826
  22690608.695   119239963.635 6  92914257.612 6  22690614.925
 22  5 25 12  2 16.0000000  0  8G10G15G16G18G23G26G27G29
  21730747.252   114195854.532 7  88983783.402 7  21730753.692
  23348664.257   122698062.812 6  95608881.864 6  23348670.047
  21965163.276   115427717.543 5  89943676.721 5  21965165.636
  21352871.423   112210095.254 6  87436438.616 6  21352873.953
  20432225.135   107372069.885 6  83666548.179 6  20432227.145
  21259996.178   111722037.574 6  87056134.124 6  21260002.858
  23602628.638   124032657.323 5  96648824.125 5  23602636.168
  22690995.407   119241989.075 6  92915835.882 6  22691000.137
 22  5 25 12  2 17.0000000  0  8G10G15G16G18G23G26G27G29
  21730277.018   114193382.928 6  88981857.480 6  21730283.078
  23348559.719   122697510.093 6  95608451.160 6  23348564.549
  21964896.745   115426316.972 5  89942585.382 5  21964899.895
  21353150.796   112211565.294 6  87437584.109 6  21353153.486
  20432103.479   107371430.596 6  83666050.030 6  20432105.739
  21260135.339   111722767.293 6  87056702.735 6  21260141.699
  23602062.144   124029682.728 5  96646506.272 5  23602070.174
  22691381.653   119244014.788 6  92917414.349 6  22691385.903
 22  5 25 12  2 18.0000000  0  8G10G15G16G18G23G26G27G29
  21729807.181   114190911.656 7  88979931.813 7  21729812.941
  23348453.767   122696957.833 6  95608020.836 6  23348459.647
  21964630.767   115424916.897 5  89941494.409 5  21964633.247
  21353430.239   112213035.362 6  87438729.626 6  21353433.449
  20431981.862   107370791.840 6  83665552.299 6  20431984.422
  21260274.092   111723497.521 7  87057271.740 7  21260280.712
  23601496.400   124026708.050 5  96644188.350 5  23601503.890
  22691767.525   119246040.703 6  92918992.982 6  22691771.305
 22  5 25 12  2 19.0000000  0  8G10G15G16G18G23G26G27G29
  21729336.488   114188441.197 7  88978006.785 7  21729342.808
  23348348.657   122696406.539 6  95607591.248 6  23348354.747
  21964364.389   115423517.807 5  89940404.205 5  21964367.079
  21353710.380   112214505.966 6  87439875.543 6  21353713.210
  20431860.440   107370154.079 6  83665055.344 6  20431863.290
  21260413.186   111724228.718 7  87057841.502 7  21260419.846
  23600930.086   124023733.781 5  96641870.733 5  23600938.266
  22692152.863   119248067.285 6  92920572.127 6  22692157.153
 22  5 25 12  2 20.0000000  0  8G10G15G16G18G23G26G27G29
  21728866.857   114185971.167 7  88976082.089 7  21728872.737
  23348243.840   122695855.798 6  95607162.111 6  23348249.970
  21964098.245   115422119.323 5  89939314.492 5  21964101.275
  21353990.638   112215976.705 6  87441021.575 6  21353993.118
  20431739.222   107369516.943 6  83664558.873 6  20431741.752
  21260552.527   111724960.505 7  87058411.723 7  21260559.057
  23600363.907   124020759.555 5  96639553.146 5  23600371.837
  22692538.789   119250094.160 6  92922151.508 6  22692542.649
 22  5 25 12  2 21.0000000  0  8G10G15G16G18G23G26G27G29
  21728396.639   114183501.581 7  88974157.737 7  21728402.729
  23348138.826   122695305.651 6  95606733.423 6  23348145.396
  21963831.892   115420721.437 5  89938225.210 5  21963835.062
  21354270.068   112217447.597 6  87442167.720 6  21354273.038
  20431618.511   107368880.424 6  83664062.883 6  20431620.101
  21260691.373   111725692.884 7  87058982.404 7  21260698.513
  23599798.798   124017785.328 5  96637235.593 5  23599806.398
  22692923.522   119252121.346 6  92923731.129 6  22692928.582
 22  5 25 12  2 22.0000000  0  8G10G15G16G18G23G26G27G29
  21727926.687   114181032.313 7  88972233.630 7  21727932.917
  23348034.132   122694755.957 6  95606305.083 6  23348040.742
  21963566.620   115419324.032 5  89937136.338 5  21963568.880
  21354550.740   112218918.507 6  87443313.881 6  21354553.050
  20431497.380   107368244.421 6  83663567.299 6  20431499.520
  21260830.968   111726425.732 7  87059553.461 7  21260837.828
  23599232.997   124014811.010 5  96634917.947 5  23599239.687
  22693310.104   119254148.700 6  92925310.885 6  22693314.524
 22  5 25 12  2 23.0000000  0  8G10G15G16G18G23G26G27G29
  21727457.086   114178563.704 7  88970310.044 7  21727463.226
  23347929.706   122694207.062 6  95605877.381 6  23347936.396
  21963300.968   115417927.471 5  89936048.102 5  21963303.748
  21354830.357   112220389.805 6  87444460.347 6  21354832.977
  20431376.413   107367609.264 6  83663072.381 6  20431378.733
  21260970.455   111727159.408 6  87060125.154 6  21260977.415
  23598664.980   124011836.943 5  96632600.475 5  23598673.950
  22693695.491   119256176.613 6  92926891.075 6  22693700.331
 22  5 25 12  2 24.0000000  0  8G10G15G16G18G23G26G27G29
  21726987.578   114176095.862 7  88968387.048 7  21726993.698
  23347825.789   122693659.054 6  95605450.360 6  23347832.169
  21963035.685   115416531.800 5  89934960.578 5  21963037.865
  21355110.399   112221861.561 6  87445607.160 6  21355112.879
  20431255.870   107366975.060 6  83662578.192 6  20431258.230
  21261110.650   111727894.008 7  87060697.565 7  21261117.170
  23598100.354   124008863.230 5  96630283.305 5  23598107.864
  22694081.177   119258205.124 6  92928471.729 6  22694086.207
 22  5 25 12  2 25.0000000  0  8G10G15G16G18G23G26G27G29
  21726517.780   114173628.243 6  88966464.232 6  21726523.950
  23347721.644   122693111.448 6  95605023.650 6  23347727.644
  21962769.730   115415136.583 5  89933873.381 5  21962772.480
  21355390.477   112223333.254 6  87446753.942 6  21355392.857
  20431134.982   107366341.283 6  83662084.341 6  20431137.292
  21261250.402   111728629.001 6  87061270.277 6  21261256.962
  23597534.340   124005889.354 5  96627965.991 5  23597542.150
  22694467.471   119260233.748 6  92930052.465 6  22694472.281
 22  5 25 12  2 26.0000000  0  8G10G15G16G18G23G26G27G29
  21726048.050   114171161.308 6  88964541.942 6  21726054.380
  23347617.070   122692564.614 6  95604597.550 6  23347623.470
  21962504.234   115413742.158 5  89932786.828 5  21962506.844
  21355670.405   112224805.331 6  87447901.010 6  21355673.355
  20431014.711   107365708.355 6  83661591.148 6  20431016.581
  21261390.800   111729364.814 6  87061843.644 6  21261397.250
  23596967.927   124002915.710 5  96625648.886 5  23596976.087
  22694853.082   119262262.875 6  92931633.608 6  22694858.202
 22  5 25 12  2 27.0000000  0  8G10G15G16G18G23G26G27G29
  21725579.052   114168695.067 7  88962620.203 7  21725584.892
  23347513.066   122692018.639 6  95604172.121 6  23347519.726
  21962239.364   115412348.621 5  89931700.955 5  21962241.534
  21355950.279   112226277.817 6  87449048.401 6  21355953.559
  20430894.827   107365076.323 6  83661098.654 6  20430896.487
  21261531.442   111730101.501 6  87062417.685 6  21261537.292
  23596403.115   123999942.368 5  96623331.986 5  23596410.815
  22695239.590   119264292.581 6  92933215.193 6  22695244.240
 22  5 25 12  2 28.0000000  0  8G10G15G16G18G23G26G27G29
  21725109.625   114166229.362 6  88960698.880 6  21725115.815
  23347409.770   122691473.317 6  95603747.197 6  23347415.620
  21961973.754   115410955.795 5  89930615.646 5  21961976.764
  21356231.032   112227750.548 6  87450195.984 6  21356233.662
  20430774.067   107364445.019 6  83660606.737 6  20430776.507
  21261670.672   111730838.867 6  87062992.257 6  21261677.432
  23595837.011   123996969.137 5  96621015.205 5  23595844.421
  22695625.845   119266322.673 6  92934797.074 6  22695631.055
 22  5 25 12  2 29.0000000  0  8G10G15G16G18G23G26G27G29
  21724640.419   114163764.082 6  88958777.882 6  21724646.889
  23347306.557   122690928.571 6  95603322.718 6  23347312.197
  21961708.501   115409563.544 5  89929530.761 5  21961711.441
  21356511.524   112229223.405 6  87451343.665 6  21356514.194
  20430653.839   107363814.317 6  83660115.276 6  20430656.389
  21261811.532   111731576.822 6  87063567.282 6  21261818.032
  23595270.970   123993995.893 5  96618698.379 5  23595278.630
  22696012.131   119268353.059 6  92936379.194 6  22696017.161
 22  5 25 12  2 30.0000000  0  8G10G15G16G18G23G26G27G29
  21724171.376   114161299.322 6  88956857.292 6  21724177.826
  23347202.406   122690384.488 6  95602898.764 6  23347208.486
  21961443.841   115408171.985 5  89928446.435 5  21961446.951
  21356791.443   112230696.505 6  87452491.530 6  21356794.143
  20430535.025   107363184.339 6  83659624.382 6  20430536.855
  21261951.913   111732315.449 6  87064142.834 6  21261958.383
  23594704.920   123991022.820 5  96616381.718 5  23594713.900
  22696398.971   119270383.814 6  92937961.592 6  22696403.561
 22  5 25 12  2 31.0000000  0  8G10G15G16G18G23G26G27G29
  21723702.732   114158835.380 6  88954937.338 6  21723708.802
  23347098.639   122689841.360 6  95602475.546 6  23347105.609
  21961179.694   115406781.402 5  89927362.870 5  21961182.684
  21357071.656   112232170.104 6  87453639.798 6  21357074.626
  20430414.961   107362555.333 6  83659134.254 6  20430416.661
  21262092.543   111733055.041 6  87064719.142 6  21262099.323
  23594139.541   123988050.089 5  96614065.308 5  23594147.411
  22696784.918   119272415.254 6  92939544.529 6  22696790.348
 22  5 25 12  2 32.0000000  0  8G10G15G16G18G23G26G27G29
  21723233.973   114156372.072 7  88953017.885 7  21723240.353
  23346995.483   122689298.985 6  95602052.919 6  23347002.123
  21960914.443   115405391.607 5  89926279.927 5  21960917.853
  21357352.115   112233644.048 6  87454788.323 6  21357355.285
  20430295.314   107361927.173 6  83658644.780 6  20430297.254
  21262233.853   111733795.448 7  87065296.079 7  21262240.093
  23593574.363   123985077.620 5  96611749.097 5  23593581.383
  22697171.557   119274447.181 6  92941127.841 6  22697176.897
 22  5 25 12  2 33.0000000  0  8G10G15G16G18G23G26G27G29
  21722765.508   114153909.110 7  88951098.691 7  21722771.508
  23346892.445   122688757.119 6  95601630.683 6  23346899.005
  21960651.157   115404002.349 5  89925197.379 5  21960653.637
  21357632.792   112235118.068 6  87455936.902 6  21357636.262
  20430175.217   107361299.553 6  83658155.721 6  20430177.977
  21262374.944   111734536.355 7  87065873.403 7  21262381.014
  23593008.874   123982105.073 5  96609432.833 5  23593015.674
  22697558.943   119276479.323 6  92942711.324 6  22697563.513
 22  5 25 12  2 34.0000000  0  8G10G15G16G18G23G26G27G29
  21722296.783   114151446.890 7  88949180.084 7  21722302.873
  23346788.645   122688216.113 6  95601209.124 6  23346795.795
  21960386.473   115402613.981 5  89924115.532 5  21960388.973
  21357913.914   112236592.521 6  87457085.821 6  21357916.654
  20430056.169   107360672.859 6  83657667.386 6  20430058.829
  21262515.874   111735278.145 7  87066451.425 7  21262522.344
  23592443.576   123979132.856 5  96607116.820 5  23592450.916
  22697945.130   119278512.053 6  92944295.268 6  22697950.180
 22  5 25 12  2 35.0000000  0  8G10G15G16G18G23G26G27G29
  21721828.141   114148985.351 7  88947262.004 7  21721834.541
  23346686.955   122687675.956 6  95600788.223 6  23346693.665
  21960122.619   115401226.483 5  89923034.357 5  21960125.109
  21358194.568   112238067.377 6  87458235.056 6  21358197.178
  20429937.077   107360047.027 6  83657179.725 6  20429939.827
  21262657.139   111736020.794 7  87067030.112 7  21262663.679
  23591877.778   123976160.918 5  96604801.024 5  23591884.498
  22698332.087   119280545.339 6  92945879.647 6  22698337.587
 22  5 25 12  2 36.0000000  0  8G10G15G16G18G23G26G27G29
  21721360.096   114146524.058 7  88945344.118 7  21721366.216
  23346584.765   122687136.179 6  95600367.610 6  23346590.375
  21959858.808   115399839.388 5  89921953.507 5  21959861.278
  21358474.742   112239542.159 6  87459384.243 6  21358477.722
  20429818.344   107359421.642 6  83656692.413 6  20429820.564
  21262798.260   111736763.834 7  87067609.099 7  21262805.230
  23591312.333   123973188.818 5  96602485.099 5  23591319.863
  22698719.389   119282578.736 6  92947464.097 6  22698724.419
 22  5 25 12  2 37.0000000  0  8G10G15G16G18G23G26G27G29
  21720891.521   114144063.394 6  88943426.716 6  21720897.831
  23346481.795   122686597.151 6  95599947.592 6  23346488.305
  21959594.853   115398453.070 5  89920873.263 5  21959597.143
  21358755.899   112241017.306 6  87460533.706 6  21358758.409
  20429699.051   107358797.059 6  83656205.722 6  20429701.861
  21262940.422   111737507.666 6  87068188.711 6  21262946.852
  23590746.763   123970216.912 5  96600169.346 5  23590754.393
  22699106.226   119284612.619 6  92949048.949 6  22699111.276
 22  5 25 12  2 38.0000000  0  8G10G15G16G18G23G26G27G29
  21720423.521   114141603.356 6  88941509.806 6  21720429.521
  23346379.548   122686058.884 6  95599528.169 6  23346385.418
  21959331.101   115397067.539 5  89919793.629 5  21959333.661
  21359036.748   112242492.755 6  87461683.407 6  21359038.818
  20429580.848   107358173.294 6  83655719.670 6  20429583.328
  21263081.747   111738252.268 7  87068768.915 7  21263088.377
  23590180.929   123967245.208 5  96597853.737 5  23590188.599
  22699493.123   119286646.972 6  92950634.156 6  22699498.733
 22  5 25 12  2 39.0000000  0  8G10G15G16G18G23G26G27G29
  21719955.647   114139144.047 7  88939593.464 7  21719961.827
  23346276.212   122685521.485 6  95599109.418 6  23346283.472
  21959067.464   115395682.925 5  89918714.709 5  21959070.204
  21359317.287   112243968.668 6  87462833.464 6  21359319.827
  20429462.197   107357550.444 6  83655234.329 6  20429464.807
  21263223.642   111738997.783 7  87069349.829 7  21263230.242
  23589615.556   123964273.848 5  96595538.398 5  23589623.146
  22699880.380   119288681.937 6  92952219.838 6  22699885.880
 22  5 25 12  2 40.0000000  0  8G10G15G16G18G23G26G27G29
  21719487.500   114136685.421 7  88937677.650 7  21719493.930
  23346175.344   122684984.883 6  95598691.289 6  23346181.214
  21958803.593   115394299.128 5  89917636.419 5  21958806.443
  21359598.292   112245444.928 6  87463983.799 6  21359600.942
  20429343.893   107356928.448 6  83654749.667 6  20429346.233
  21263366.019   111739744.095 7  87069931.375 7  21263372.389
  23589049.755   123961302.747 5  96593223.278 5  23589057.085
  22700267.610   119290717.404 6  92953805.907 6  22700273.350
 22  5 25 12  2 41.0000000  0  8G10G15G16G18G23G26G27G29
  21719019.641   114134227.239 6  88935762.187 6  21719025.851
  23346073.148   122684448.905 6  95598273.647 6  23346078.788
  21958541.136   115392915.970 5  89916558.643 5  21958543.566
  21359879.332   112246921.394 6  87465134.285 6  21359881.722
  20429225.693   107356307.111 6  83654265.501 6  20429228.263
  21263507.605   111740491.030 6  87070513.404 6  21263514.295
  23588484.589   123958331.671 5  96590908.159 5  23588492.349
  22700654.678   119292753.207 6  92955392.254 6  22700660.688
 22  5 25 12  2 42.0000000  0  8G10G15G16G18G23G26G27G29
  21718551.787   114131769.813 6  88933847.313 6  21718558.307
  23345970.958   122683913.835 6  95597856.711 6  23345977.068
  21958277.931   115391533.734 5  89915481.569 5  21958280.821
  21360160.082   112248398.279 6  87466285.101 6  21360162.842
  20429107.299   107355686.702 6  83653782.071 6  20429110.349
  21263649.572   111741238.878 7  87071096.136 7  21263656.562
  23587919.018   123955360.969 5  96588593.307 5  23587926.958
  22701043.074   119294789.630 6  92956979.065 6  22701047.674
 22  5 25 12  2 43.0000000  0  8G10G15G16G18G23G26G27G29
  21718084.372   114129312.716 6  88931932.692 6  21718090.702
  23345869.922   122683379.199 6  95597440.108 6  23345875.042
  21958014.719   115390151.977 5  89914404.879 5  21958017.759
  21360441.623   112249875.206 6  87467435.963 6  21360443.863
  20428988.686   107355066.805 6  83653299.029 6  20428992.186
  21263791.443   111741987.214 7  87071679.248 7  21263799.173
  23587353.724   123952390.147 5  96586278.383 5  23587360.914
  22701429.926   119296826.231 6  92958566.023 6  22701435.356
 22  5 25 12  2 44.0000000  0  8G10G15G16G18G23G26G27G29
  21717616.837   114126855.998 7  88930018.373 7  21717623.227
  23345767.887   122682845.091 6  95597023.921 6  23345773.797
  21957752.020   115388770.776 5  89913328.622 5  21957754.990
  21360722.076   112251352.257 6  87468586.909 6  21360725.066
  20428871.812   107354447.483 6  83652816.451 6  20428874.192
  21263934.455   111742736.090 7  87072262.795 7  21263941.635
  23586788.603   123949419.336 5  96583963.459 5  23586795.033
  22701818.127   119298863.060 6  92960153.161 6  22701822.847
 22  5 25 12  2 45.0000000  0  8G10G15G16G18G23G26G27G29
  21717149.709   114124399.792 7  88928104.450 7  21717155.869
  23345666.725   122682311.650 6  95596608.255 6  23345672.235
  21957489.983   115387390.241 5  89912252.877 5  21957492.793
  21361003.041   112252829.474 6  87469737.981 6  21361006.161
  20428754.084   107353828.859 6  83652334.399 6  20428756.274
  21264077.370   111743485.614 7  87072846.833 7  21264084.240
  23586224.133   123946448.559 5  96581648.585 5  23586230.083
  22702206.134   119300900.277 6  92961740.592 6  22702210.714
 22  5 25 12  2 46.0000000  0  8G10G15G16G18G23G26G27G29
  21716682.498   114121944.029 7  88926190.868 7  21716688.298
  23345564.898   122681778.782 6  95596193.031 6  23345571.478
  21957227.431   115386010.332 5  89911177.615 5  21957229.751
  21361284.352   112254306.872 6  87470889.203 6  21361287.372
  20428636.436   107353210.863 6  83651852.850 6  20428638.756
  21264219.864   111744235.755 7  87073431.358 7  21264227.104
  23585658.727   123943477.854 5  96579333.754 5  23585665.597
  22702593.927   119302937.773 6  92963328.258 6  22702598.327
 22  5 25 12  2 47.0000000  0  8G10G15G16G18G23G26G27G29
  21716215.334   114119489.028 7  88924277.884 7  21716221.144
  23345464.440   122681246.815 6  95595778.517 6  23345470.000
  21956964.777   115384631.340 5  89910103.089 5  21956967.407
  21361565.491   112255784.721 6  87472040.772 6  21361568.811
  20428518.867   107352593.825 6  83651372.035 6  20428521.227
  21264363.024   111744986.799 7  87074016.591 7  21264369.984
  23585092.752   123940507.469 5  96577019.183 5  23585100.102
  22702981.358   119304975.906 6  92964916.408 6  22702986.308
 22  5 25 12  2 48.0000000  0  8G10G15G16G18G23G26G27G29
  21715748.005   114117034.165 7  88922365.002 7  21715754.155
  23345362.778   122680715.119 6  95595364.204 6  23345368.288
  21956701.847   115383252.637 5  89909028.780 5  21956705.087
  21361846.462   112257262.428 6  87473192.229 6  21361849.822
  20428401.384   107351977.097 6  83650891.470 6  20428404.134
  21264506.085   111745738.150 7  87074602.054 7  21264512.935
  23584527.652   123937536.848 5  96574704.385 5  23584533.922
  22703369.901   119307014.043 6  92966504.561 6  22703374.281
 22  5 25 12  2 49.0000000  0  8G10G15G16G18G23G26G27G29
  21715281.552   114114579.897 6  88920452.586 6  21715287.172
  23345261.760   122680184.161 6  95594950.466 6  23345267.780
  21956439.357   115381874.723 5  89907955.078 5  21956442.967
  21362127.974   112258740.428 6  87474343.918 6  21362130.914
  20428284.834   107351361.149 6  83650411.513 6  20428286.834
  21264649.368   111746490.250 6  87075188.099 6  21264656.288
  23583961.524   123934566.390 5  96572389.757 5  23583969.264
  22703757.449   119309052.614 6  92968093.056 6  22703762.189
 22  5 25 12  2 50.0000000  0  8G10G15G16G18G23G26G27G29
  21714814.119   114112126.064 6  88918540.516 6  21714820.179
  23345160.358   122679653.760 6  95594537.182 6  23345166.928
  21956177.962   115380497.411 5  89906881.843 5  21956181.132
  21362409.152   112260218.575 6  87475495.721 6  21362412.172
  20428167.501   107350745.845 6  83649932.054 6  20428170.281
  21264792.887   111747242.938 6  87075774.612 6  21264799.287
  23583396.547   123931595.962 5  96570075.137 5  23583403.847
  22704145.149   119311091.509 6  92969681.795 6  22704149.929
 22  5 25 12  2 51.0000000  0  8G10G15G16G18G23G26G27G29
  21714347.198   114109673.078 6  88916629.103 6  21714353.728
  23345060.419   122679124.370 6  95594124.657 6  23345065.799
  21955915.911   115379121.098 5  89905809.398 5  21955919.231
  21362690.645   112261697.266 6  87476647.944 6  21362693.375
  20428050.267   107350131.554 6  83649453.393 6  20428053.117
  21264936.449   111747996.630 7  87076361.904 7  21264942.759
  23582832.677   123928625.964 5  96567760.862 5  23582838.557
  22704533.614   119313131.084 6  92971271.071 6  22704538.594
 22  5 25 12  2 52.0000000  0  8G10G15G16G18G23G26G27G29
  21713880.526   114107220.663 6  88914718.134 6  21713886.846
  23344959.985   122678595.683 6  95593712.709 6  23344965.095
  21955654.225   115377745.568 5  89904737.566 5  21955657.325
  21362971.853   112263176.240 6  87477800.387 6  21362975.273
  20427933.882   107349518.048 6  83648975.332 6  20427936.412
  21265079.744   111748751.059 7  87076949.768 7  21265086.284
  23582266.926   123925656.132 5  96565446.704 5  23582273.736
  22704921.990   119315171.118 6  92972860.707 6  22704926.530
 22  5 25 12  2 53.0000000  0  8G10G15G16G18G23G26G27G29
  21713413.896   114104768.571 6  88912807.408 6  21713420.496
  23344858.038   122678067.459 6  95593301.091 6  23344864.818
  21955392.650   115376370.501 5  89903666.079 5  21955395.560
  21363253.655   112264655.227 6  87478952.844 6  21363256.885
  20427817.038   107348905.011 6  83648497.639 6  20427819.558
  21265223.068   111749505.940 6  87077537.989 6  21265229.878
  23581701.323   123922686.181 5  96563132.484 5  23581708.943
  22705309.666   119317211.301 6  92974450.455 6  22705314.676
 22  5 25 12  2 54.0000000  0  8G10G15G16G18G23G26G27G29
  21712947.087   114102316.890 6  88910897.010 6  21712953.587
  23344759.316   122677539.783 6  95592889.920 6  23344764.146
  21955131.561   115374996.006 5  89902595.055 5  21955133.291
  21363535.085   112266134.334 6  87480105.388 6  21363538.075
  20427700.331   107348292.596 6  83648020.432 6  20427702.981
  21265367.170   111750261.393 6  87078126.658 6  21265373.700
  23581135.989   123919716.241 5  96560818.252 5  23581144.159
  22705698.356   119319251.761 6  92976040.421 6  22705703.166
 22  5 25 12  2 55.0000000  0  8G10G15G16G18G23G26G27G29
  21712480.675   114099865.844 6  88908987.107 6  21712487.155
  23344658.919   122677012.892 6  95592479.358 6  23344664.149
  21954869.899   115373622.337 5  89901524.655 5  21954872.809
  21363816.498   112267613.799 6  87481258.224 6  21363819.828
  20427583.811   107347681.008 6  83647543.871 6  20427586.631
  21265511.118   111751017.649 7  87078715.944 7  21265517.548
  23580572.080   123916746.516 5  96558504.186 5  23580579.010
  22706087.073   119321292.734 6  92977630.787 6  22706091.743
 22  5 25 12  2 56.0000000  0  8G10G15G16G18G23G26G27G29
  21712014.171   114097415.564 6  88907077.797 6  21712020.761
  23344557.943   122676486.890 6  95592069.491 6  23344564.293
  21954608.576   115372249.593 5  89900454.983 5  21954611.566
  21364097.997   112269093.720 6  87482411.412 6  21364100.987
  20427466.970   107347070.370 6  83647068.054 6  20427470.470
  21265655.534   111751774.829 7  87079305.951 7  21265661.684
  23580006.794   123913777.190 5  96556190.433 5  23580014.034
  22706475.364   119323334.319 6  92979221.628 6  22706479.934
 22  5 25 12  2 57.0000000  0  8G10G15G16G18G23G26G27G29
  21711548.033   114094965.655 6  88905168.780 6  21711554.673
  23344457.854   122675961.406 6  95591660.027 6  23344463.734
  21954346.965   115370877.364 5  89899385.714 5  21954350.445
  21364380.212   112270573.710 6  87483564.651 6  21364382.852
  20427351.334   107346460.277 6  83646592.651 6  20427354.434
  21265800.025   111752532.517 7  87079896.359 7  21265805.885
  23579441.101   123910807.787 5  96553876.590 5  23579448.631
  22706863.955   119325376.120 6  92980812.639 6  22706868.345
 22  5 25 12  2 58.0000000  0  8G10G15G16G18G23G26G27G29
  21711082.207   114092515.876 7  88903259.864 7  21711088.207
  23344357.642   122675436.208 6  95591250.785 6  23344364.142
  21954086.100   115369505.434 5  89898316.690 5  21954089.240
  21364662.131   112272053.543 6  87484717.766 6  21364664.221
  20427235.824   107345850.514 6  83646117.506 6  20427238.614
  21265943.560   111753290.512 7  87080487.000 7  21265950.140
  23578876.049   123907838.096 5  96551562.557 5  23578883.709
  22707251.965   119327417.934 6  92982403.655 6  22707257.415
 22  5 25 12  2 59.0000000  0  8G10G15G16G18G23G26G27G29
  21710616.110   114090067.144 7  88901351.768 7  21710622.320
  23344258.021   122674912.161 6  95590842.433 6  23344264.731
  21953826.132   115368134.744 5  89897248.609 5  21953828.142
  21364943.696   112273534.132 6  87485871.470 6  21364946.246
  20427119.924   107345241.970 6  83645643.316 6  20427122.464
  21266087.820   111754049.690 7  87081078.569 7  21266094.610
  23578310.194   123904869.039 5  96549248.997 5  23578318.874
  22707641.224   119329460.644 6  92983995.376 6  22707645.854
 22  5 25 12  3  0.0000000  0  8G10G15G16G18G23G26G27G29
  21710150.167   114087618.705 7  88899443.895 7  21710156.357
  23344158.541   122674388.583 6  95590434.450 6  23344164.811
  21953565.421   115366764.486 5  89896180.877 5  21953567.531
  21365225.252   112275014.723 6  87487025.176 6  21365227.822
  20427004.009   107344633.917 6  83645169.524 6  20427007.129
  21266232.937   111754809.328 7  87081670.497 7  21266239.127
  23577745.906   123901899.863 5  96546935.374 5  23577754.726
  22708029.479   119331503.500 6  92985587.203 6  22708034.529
 22  5 25 12  3  1.0000000  0  8G10G15G16G18G23G26G27G29
  21709684.805   114085170.640 6  88897536.313 6  21709690.465
  23344058.758   122673865.478 6  95590026.840 6  23344065.168
  21953304.167   115365394.739 5  89895113.546 5  21953306.597
  21365506.751   112276495.378 6  87488178.927 6  21365509.831
  20426888.769   107344026.399 6  83644696.126 6  20426891.149
  21266377.767   111755569.485 6  87082262.821 6  21266383.897
  23577181.256   123898930.636 5  96544621.697 5  23577189.486
  22708418.049   119333546.595 6  92987179.221 6  22708423.319
 22  5 25 12  3  2.0000000  0  8G10G15G16G18G23G26G27G29
  21709218.909   114082723.323 6  88895629.312 6  21709224.839
  23343960.076   122673343.272 6  95589619.928 6  23343965.436
  21953043.734   115364025.951 5  89894046.954 5  21953046.504
  21365788.943   112277976.486 6  87489333.041 6  21365791.323
  20426773.151   107343419.832 6  83644223.473 6  20426775.551
  21266522.807   111756330.538 6  87082855.845 6  21266528.747
  23576616.678   123895961.780 5  96542308.305 5  23576623.758
  22708807.411   119335590.277 6  92988771.702 6  22708812.051
 22  5 25 12  3  3.0000000  0  8G10G15G16G18G23G26G27G29
  21708752.894   114080276.558 7  88893722.743 7  21708759.394
  23343860.389   122672821.775 6  95589213.570 6  23343866.479
  21952783.331   115362657.853 5  89892980.910 5  21952785.661
  21366070.046   112279457.851 6  87490487.350 6  21366073.066
  20426658.013   107342814.012 6  83643751.407 6  20426660.203
  21266667.253   111757092.315 6  87083449.436 6  21266673.643
  23576051.065   123892993.027 5  96539994.979 5  23576059.155
  22709196.029   119337634.422 6  92990364.535 6  22709201.359
 22  5 25 12  3  4.0000000  0  8G10G15G16G18G23G26G27G29
  21708287.700   114077830.613 7  88891816.816 7  21708293.930
  23343761.814   122672301.228 6  95588807.960 6  23343767.604
  21952523.642   115361290.750 5  89891915.622 5  21952525.542
  21366352.061   112280939.732 6  87491642.061 6  21366355.571
  20426543.261   107342209.192 6  83643280.120 6  20426545.481
  21266812.370   111757855.067 7  87084043.791 7  21266818.700
  23575486.029   123890024.704 5  96537682.007 5  23575493.589
  22709584.746   119339679.199 6  92991957.867 6  22709590.266
 22  5 25 12  3  5.0000000  0  8G10G15G16G18G23G26G27G29
  21707822.815   114075385.052 6  88889911.183 6  21707828.825
  23343663.281   122671781.209 6  95588402.745 6  23343668.441
  21952262.700   115359924.181 5  89890850.779 5  21952265.960
  21366634.118   112282421.708 6  87492796.845 6  21366637.428
  20426427.766   107341604.925 6  83642809.263 6  20426430.476
  21266957.329   111758618.332 6  87084638.536 6  21266964.059
  23574920.764   123887056.311 5  96535368.984 5  23574929.274
  22709974.806   119341724.232 6  92993551.398 6  22709979.336
 22  5 25 12  3  6.0000000  0  8G10G15G16G18G23G26G27G29
  21707357.168   114072939.933 6  88888005.902 6  21707363.328
  23343563.768   122671261.768 6  95587997.983 6  23343569.708
  21952002.819   115358558.233 5  89889786.402 5  21952005.649
  21366916.564   112283903.842 6  87493951.763 6  21366919.364
  20426313.378   107341001.299 6  83642338.909 6  20426315.358
  21267102.779   111759382.216 7  87085233.768 7  21267109.279
  23574355.832   123884087.987 5  96533056.006 5  23574364.392
  22710363.427   119343769.574 6  92995145.168 6  22710368.737
 22  5 25 12  3  7.0000000  0  8G10G15G16G18G23G26G27G29
  21706892.019   114070495.621 7  88886101.248 7  21706898.019
  23343465.571   122670743.280 6  95587593.971 6  23343471.201
  21951742.968   115357193.251 5  89888722.783 5  21951745.608
  21367198.333   112285386.477 6  87495107.059 6  21367201.503
  20426198.554   107340398.664 6  83641869.325 6  20426200.914
  21267248.457   111760147.053 7  87085829.747 7  21267254.927
  23573791.671   123881120.066 5  96530743.333 5  23573798.701
  22710752.380   119345815.589 6  92996739.458 6  22710758.130
 22  5 25 12  3  8.0000000  0  8G10G15G16G18G23G26G27G29
  21706426.861   114068051.594 7  88884196.816 7  21706433.071
  23343366.454   122670225.227 6  95587190.294 6  23343372.394
  21951483.464   115355828.738 5  89887659.523 5  21951486.114
  21367480.789   112286869.111 6  87496262.352 6  21367483.869
  20426083.826   107339796.510 6  83641400.117 6  20426086.226
  21267394.087   111760912.338 7  87086426.072 7  21267400.437
  23573227.059   123878152.001 5  96528430.559 5  23573234.149
  22711141.976   119347861.747 6  92998333.859 6  22711147.476
 22  5 25 12  3  9.0000000  0  8G10G15G16G18G23G26G27G29
  21705961.718   114065608.183 6  88882292.855 6  21705967.898
  23343267.843   122669707.917 6  95586787.195 6  23343274.063
  21951224.003   115354464.987 5  89886596.864 5  21951226.653
  21367762.600   112288352.053 6  87497417.887 6  21367765.820
  20425968.868   107339195.150 6  83640931.528 6  20425971.788
  21267539.502   111761678.376 7  87087022.984 7  21267546.232
  23572662.829   123875184.151 5  96526117.962 5  23572669.599
  22711531.826   119349908.371 6  92999928.629 6  22711537.056
 22  5 25 12  3 10.0000000  0  8G10G15G16G18G23G26G27G29
  21705496.974   114063165.548 7  88880389.512 7  21705503.074
  23343169.472   122669191.523 6  95586384.814 6  23343175.912
  21950965.396   115353102.178 6  89885534.930 6  21950967.226
  21368045.250   112289835.478 6  87498573.805 6  21368048.210
  20425855.082   107338594.773 6  83640463.696 6  20425857.402
  21267685.911   111762445.366 7  87087620.634 7  21267692.151
  23572097.579   123872216.657 5  96523805.632 5  23572104.909
  22711921.238   119351955.617 6  93001523.891 6  22711926.388
 22  5 25 12  3 11.0000000  0  8G10G15G16G18G23G26G27G29
  21705032.440   114060723.767 7  88878486.825 7  21705038.300
  23343071.677   122668676.094 6  95585983.176 6  23343077.147
  21950705.818   115351740.370 6  89884473.785 6  21950708.408
  21368327.742   112291319.444 6  87499730.143 6  21368330.682
  20425741.427   107337995.397 6  83639996.649 6  20425743.287
  21267831.856   111763213.329 7  87088219.051 7  21267838.406
  23571533.397   123869249.574 5  96521493.623 5  23571539.417
  22712311.163   119354003.579 6  93003119.694 6  22712316.073
 22  5 25 12  3 12.0000000  0  8G10G15G16G18G23G26G27G29
  21704567.731   114058282.468 7  88876584.519 7  21704573.831
  23342973.369   122668161.309 6  95585582.052 6  23342979.629
  21950446.239   115350379.223 5  89883413.154 5  21950449.479
  21368609.789   112292803.610 6  87500886.629 6  21368612.999
  20425627.003   107337396.710 6  83639530.149 6  20425629.533
  21267977.867   111763981.956 7  87088817.973 7  21267984.427
  23570968.792   123866282.590 5  96519181.699 5  23570974.902
  22712700.600   119356051.894 6  93004715.778 6  22712705.910
 22  5 25 12  3 13.0000000  0  8G10G15G16G18G23G26G27G29
  21704103.314   114055841.757 6  88874682.672 6  21704109.234
  23342875.795   122667647.255 6  95585181.493 6  23342881.845
  21950187.482   115349018.836 5  89882353.105 5  21950190.832
  21368892.673   112294288.063 6  87502043.345 6  21368895.063
  20425513.495   107336798.786 6  83639064.232 6  20425515.955
  21268124.055   111764751.308 6  87089417.471 6  21268130.865
  23570403.635   123863315.792 5  96516869.908 5  23570409.905
  22713090.767   119358100.637 6  93006312.195 6  22713095.847
 22  5 25 12  3 14.0000000  0  8G10G15G16G18G23G26G27G29
  21703638.807   114053401.488 6  88872781.157 6  21703644.977
  23342777.784   122667133.776 6  95584781.390 6  23342783.904
  21949929.301   115347659.057 5  89881293.546 5  21949931.531
  21369175.036   112295772.670 6  87503200.185 6  21369177.746
  20425399.343   107336201.518 6  83638598.821 6  20425402.053
  21268270.744   111765521.268 6  87090017.431 6  21268277.414
  23569839.027   123860348.994 5  96514558.116 5  23569845.757
  22713481.448   119360149.689 6  93007908.860 6  22713486.228
 22  5 25 12  3 15.0000000  0  8G10G15G16G18G23G26G27G29
  21703174.398   114050961.935 6  88870880.212 6  21703180.708
  23342679.884   122666621.149 6  95584381.932 6  23342686.254
  21949670.050   115346300.147 5  89880234.662 5  21949673.290
  21369458.112   112297257.694 6  87504357.346 6  21369460.322
  20425286.016   107335605.116 6  83638134.102 6  20425288.816
  21268417.636   111766292.101 7  87090618.085 7  21268424.206
  23569274.737   123857382.489 5  96512246.566 5  23569281.437
  22713871.517   119362199.315 6  93009505.964 6  22713875.767
 22  5 25 12  3 16.0000000  0  8G10G15G16G18G23G26G27G29
  21702710.154   114048522.712 6  88868979.523 6  21702716.514
  23342582.517   122666109.013 6  95583982.861 6  23342588.967
  21949411.955   115344941.737 5  89879176.163 5  21949414.585
  21369740.268   112298742.733 6  87505514.521 6  21369743.138
  20425172.460   107335009.249 6  83637669.784 6  20425175.150
  21268563.800   111767063.399 7  87091219.089 7  21268570.820
  23568709.862   123854415.925 5  96509934.976 5  23568717.862
  22714260.989   119364249.118 6  93011103.212 6  22714265.859
 22  5 25 12  3 17.0000000  0  8G10G15G16G18G23G26G27G29
  21702246.304   114046083.718 6  88867079.004 6  21702252.434
  23342484.572   122665597.206 6  95583584.052 6  23342491.652
  21949153.102   115343583.729 5  89878117.951 5  21949156.782
  21370022.651   112300227.712 6  87506671.648 6  21370025.731
  20425058.911   107334413.790 6  83637205.791 6  20425062.251
  21268710.509   111767835.079 7  87091820.405 7  21268717.619
  23568145.191   123851449.169 5  96507623.210 5  23568152.221
  22714651.850   119366299.014 6  93012700.534 6  22714655.820
 22  5 25 12  3 18.0000000  0  8G10G15G16G18G23G26G27G29
  21701782.405   114043645.313 7  88865178.953 7  21701788.595
  23342388.093   122665086.152 6  95583185.829 6  23342394.373
  21948895.281   115342226.459 6  89877060.353 6  21948898.231
  21370305.388   112301712.980 6  87507828.997 6  21370308.268
  20424946.258   107333819.095 6  83636742.389 6  20424948.738
  21268857.893   111768607.508 7  87092422.291 7  21268864.583
  23567581.635   123848482.592 5  96505311.584 5  23567588.145
  22715041.031   119368349.358 6  93014298.195 6  22715046.221
 22  5 25 12  3 19.0000000  0  8G10G15G16G18G23G26G27G29
  21701318.755   114041207.751 7  88863279.560 7  21701324.715
  23342290.636   122664576.085 6  95582788.383 6  23342297.216
  21948637.013   115340870.218 6  89876003.538 6  21948640.333
  21370588.587   112303198.812 6  87508986.780 6  21370591.407
  20424833.434   107333225.447 6  83636279.805 6  20424835.654
  21269005.577   111769380.932 7  87093024.958 7  21269011.727
  23567016.904   123845516.465 5  96503000.324 5  23567024.014
  22715431.673   119370400.404 6  93015896.405 6  22715436.273
 22  5 25 12  3 20.0000000  0  8G10G15G16G18G23G26G27G29
  21700855.039   114038770.778 7  88861380.621 7  21700861.349
  23342194.037   122664066.723 6  95582391.473 6  23342200.397
  21948379.746   115339514.709 6  89874947.297 6  21948381.586
  21370871.364   112304684.915 6  87510144.779 6  21370873.904
  20424720.592   107332632.552 6  83635817.808 6  20424723.052
  21269152.214   111770155.091 7  87093628.201 7  21269159.344
  23566451.936   123842550.459 5  96500689.161 5  23566459.246
  22715821.499   119372451.898 6  93017494.971 6  22715826.729
 22  5 25 12  3 21.0000000  0  8G10G15G16G18G23G26G27G29
  21700391.344   114036334.506 7  88859482.234 7  21700397.744
  23342097.519   122663558.234 6  95581995.246 6  23342103.259
  21948121.508   115338160.077 5  89873891.730 5  21948124.528
  21371153.972   112306171.430 6  87511303.102 6  21371156.792
  20424607.942   107332040.553 6  83635356.519 6  20424610.162
  21269300.213   111770930.104 7  87094232.102 7  21269306.523
  23565887.771   123839584.785 5  96498378.247 5  23565895.981
  22716212.123   119374503.926 6  93019093.954 6  22716217.303
 22  5 25 12  3 22.0000000  0  8G10G15G16G18G23G26G27G29
  21699927.811   114033898.703 7  88857584.204 7  21699933.971
  23342000.183   122663050.291 6  95581599.456 6  23342007.133
  21947863.800   115336806.067 6  89872836.670 6  21947866.420
  21371437.570   112307658.115 6  87512461.560 6  21371439.770
  20424495.094   107331449.208 6  83634895.727 6  20424497.644
  21269447.372   111771705.742 7  87094836.494 7  21269454.202
  23565324.168   123836619.153 5  96496067.380 5  23565331.688
  22716602.159   119376556.299 6  93020693.196 6  22716607.759
 22  5 25 12  3 23.0000000  0  8G10G15G16G18G23G26G27G29
  21699464.337   114031463.096 7  88855686.335 7  21699470.377
  23341904.309   122662542.741 6  95581203.968 6  23341910.419
  21947605.820   115335452.451 5  89871781.909 5  21947608.810
  21371719.893   112309144.701 6  87513619.937 6  21371722.733
  20424382.513   107330858.252 6  83634435.240 6  20424385.233
  21269594.906   111772481.726 7  87095441.162 7  21269601.916
  23564759.688   123833653.306 5  96493756.318 5  23564766.848
  22716993.325   119378608.742 6  93022292.507 6  22716998.005
 22  5 25 12  3 24.0000000  0  8G10G15G16G18G23G26G27G29
  21699001.167   114029028.145 7  88853788.967 7  21699007.027
  23341807.623   122662035.980 6  95580809.091 6  23341813.693
  21947348.151   115334099.624 5  89870727.770 5  21947351.751
  21372002.936   112310631.645 6  87514778.586 6  21372005.436
  20424270.547   107330268.134 6  83633975.405 6  20424273.127
  21269742.976   111773258.532 7  87096046.458 7  21269749.836
  23564194.732   123830687.725 5  96491445.471 5  23564202.542
  22717384.143   119380661.689 6  93023892.199 6  22717388.783
 22  5 25 12  3 25.0000000  0  8G10G15G16G18G23G26G27G29
  21698538.012   114026593.672 6  88851891.976 6  21698543.492
  23341711.216   122661529.805 6  95580414.673 6  23341717.636
  21947091.175   115332747.452 5  89869674.113 5  21947094.435
  21372285.826   112312118.755 6  87515937.375 6  21372288.136
  20424158.586   107329678.664 6  83633516.083 6  20424161.216
  21269891.008   111774035.950 7  87096652.244 7  21269897.738
  23563630.289   123827722.172 5  96489134.661 5  23563638.589
  22717774.977   119382714.949 6  93025492.139 6  22717779.457
 22  5 25 12  3 26.0000000  0  8G10G15G16G18G23G26G27G29
  21698074.940   114024159.622 6  88849995.321 6  21698080.550
  23341616.301   122661024.237 6  95580020.731 6  23341621.401
  21946834.067   115331395.889 5  89868620.944 5  21946837.187
  21372568.801   112313606.011 6  87517096.275 6  21372571.311
  20424045.936   107329089.826 6  83633057.252 6  20424048.556
  21270038.416   111774813.951 7  87097258.479 7  21270045.866
  23563065.498   123824756.645 5  96486823.863 5  23563074.898
  22718165.399   119384768.509 6  93027092.320 6  22718170.479
 22  5 25 12  3 27.0000000  0  8G10G15G16G18G23G26G27G29
  21697611.398   114021725.799 7  88848098.831 7  21697617.448
  23341518.971   122660519.017 6  95579627.040 6  23341525.391
  21946577.430   115330044.677 5  89867568.056 5  21946579.890
  21372851.361   112315093.170 6  87518255.102 6  21372854.411
  20423934.285   107328501.373 6  83632598.713 6  20423936.955
  21270186.663   111775592.320 7  87097864.992 7  21270193.973
  23562501.274   123821790.923 5  96484512.912 5  23562510.104
  22718557.096   119386822.132 6  93028692.533 6  22718561.216
 22  5 25 12  3 28.0000000  0  8G10G15G16G18G23G26G27G29
  21697148.642   114019292.741 7  88846202.945 7  21697154.512
  23341424.821   122660014.708 6  95579234.084 6  23341429.621
  21946320.445   115328694.430 5  89866515.921 5  21946322.735
  21373134.425   112316580.812 6  87519414.305 6  21373137.565
  20423821.958   107327913.890 6  83632140.940 6  20423824.858
  21270335.024   111776371.620 7  87098472.241 7  21270342.254
  23561937.211   123818825.564 5  96482202.237 5  23561945.121
  22718947.999   119388876.407 6  93030293.263 6  22718951.919
 22  5 25 12  3 29.0000000  0  8G10G15G16G18G23G26G27G29
  21696685.636   114016859.998 7  88844307.308 7  21696691.616
  23341327.571   122659510.852 6  95578841.461 6  23341333.291
  21946063.672   115327344.658 5  89865464.161 5  21946066.052
  21373417.717   112318068.478 6  87520573.517 6  21373420.687
  20423710.777   107327326.903 6  83631683.548 6  20423713.267
  21270483.209   111777151.400 7  87099079.859 7  21270490.549
  23561372.699   123815860.092 5  96479891.493 5  23561380.349
  22719338.541   119390930.852 6  93031894.126 6  22719343.211
 22  5 25 12  3 30.0000000  0  8G10G15G16G18G23G26G27G29
  21696223.020   114014427.378 7  88842411.755 7  21696228.540
  23341231.311   122659007.233 6  95578449.036 6  23341237.831
  21945806.969   115325995.160 5  89864412.591 5  21945810.029
  21373700.589   112319555.940 6  87521732.590 6  21373703.749
  20423599.144   107326740.223 6  83631226.393 6  20423601.814
  21270631.948   111777931.420 7  87099687.669 7  21270639.068
  23560808.589   123812894.345 5  96477580.519 5  23560816.439
  22719729.246   119392985.254 6  93033494.957 6  22719734.156
 22  5 25 12  3 31.0000000  0  8G10G15G16G18G23G26G27G29
  21695759.874   114011995.590 7  88840516.861 7  21695765.974
  23341136.010   122658504.618 6  95578057.388 6  23341141.960
  21945550.020   115324646.668 5  89863361.821 5  21945552.870
  21373984.193   112321043.966 6  87522892.085 6  21373986.953
  20423488.232   107326154.549 6  83630770.019 6  20423490.332
  21270780.966   111778712.442 7  87100296.254 7  21270787.746
  23560244.073   123809929.020 5  96475269.886 5  23560252.113
  22720120.505   119395040.358 6  93035096.341 6  22720125.375
 22  5 25 12  3 32.0000000  0  8G10G15G16G18G23G26G27G29
  21695296.976   114009564.706 7  88838622.663 7  21695303.436
  23341040.394   122658003.002 6  95577666.525 6  23341046.034
  21945293.242   115323299.242 6  89862311.879 6  21945296.262
  21374267.580   112322532.574 6  87524052.038 6  21374270.170
  20423377.036   107325569.961 6  83630314.501 6  20423379.166
  21270929.486   111779494.521 7  87100905.663 7  21270936.556
  23559680.335   123806964.166 5  96472959.603 5  23559688.265
  22720511.470   119397096.201 6  93036698.277 6  22720516.820
 22  5 25 12  3 33.0000000  0  8G10G15G16G18G23G26G27G29
  21694834.714   114007134.326 7  88836728.873 7  21694840.774
  23340944.844   122657502.059 6  95577276.179 6  23340951.504
  21945037.321   115321952.497 5  89861262.470 5  21945040.111
  21374550.231   112324021.399 6  87525212.155 6  21374553.791
  20423265.349   107324986.081 6  83629859.530 6  20423267.689
  21271078.786   111780277.245 7  87101515.578 7  21271085.356
  23559116.572   123803999.422 5  96470649.419 5  23559124.102
  22720902.972   119399152.426 6  93038300.536 6  22720907.722
 22  5 25 12  3 34.0000000  0  8G10G15G16G18G23G26G27G29
  21694372.467   114004704.605 7  88834835.582 7  21694378.447
  23340849.618   122657001.904 6  95576886.442 6  23340855.948
  21944780.830   115320606.563 6  89860213.704 6  21944783.920
  21374834.026   112325510.586 6  87526372.562 6  21374837.056
  20423154.234   107324403.022 6  83629405.203 6  20423156.564
  21271228.103   111781060.787 7  87102126.129 7  21271234.523
  23558552.030   123801034.898 5  96468339.422 5  23558559.540
  22721295.137   119401209.159 6  93039903.175 6  22721299.477
 22  5 25 12  3 35.0000000  0  8G10G15G16G18G23G26G27G29
  21693909.906   114002275.365 7  88832942.666 7  21693916.096
  23340754.884   122656502.374 6  95576497.199 6  23340761.384
  21944525.236   115319261.290 5  89859165.425 5  21944528.056
  21375117.717   112326999.953 6  87527533.108 6  21375120.417
  20423043.271   107323820.642 6  83628951.399 6  20423046.141
  21271377.055   111781844.961 7  87102737.170 7  21271383.955
  23557987.392   123798070.478 5  96466029.479 5  23557995.942
  22721685.868   119403266.247 6  93041506.097 6  22721690.818
 22  5 25 12  3 36.0000000  0  8G10G15G16G18G23G26G27G29
  21693447.976   113999846.610 7  88831050.136 7  21693454.046
  23340659.924   122656003.460 6  95576108.434 6  23340666.324
  21944269.522   115317916.645 5  89858117.655 5  21944271.652
  21375401.120   112328489.495 6  87528693.790 6  21375403.650
  20422932.366   107323238.932 6  83628498.112 6  20422935.156
  21271526.370   111782629.753 7  87103348.698 7  21271533.220
  23557423.806   123795106.078 5  96463719.575 5  23557431.406
  22722076.953   119405323.669 6  93043109.269 6  22722082.143
 22  5 25 12  3 37.0000000  0  8G10G15G16G18G23G26G27G29
  21692985.526   113997418.215 6  88829157.887 6  21692992.006
  23340566.023   122655505.055 6  95575720.084 6  23340571.993
  21944013.506   115316572.531 5  89857070.291 5  21944016.516
  21375684.499   112329979.105 6  87529854.524 6  21375687.349
  20422822.180   107322657.750 6  83628045.246 6  20422824.550
  21271675.705   111783415.065 6  87103960.629 6  21271682.545
  23556858.721   123792141.667 5  96461409.647 5  23556866.751
  22722469.352   119407381.290 6  93044712.613 6  22722474.292
 22  5 25 12  3 38.0000000  0  8G10G15G16G18G23G26G27G29
  21692524.094   113994990.474 7  88827266.130 7  21692530.004
  23340471.019   122655007.437 6  95575332.323 6  23340477.109
  21943757.735   115315229.255 5  89856023.584 5  21943761.065
  21375967.961   112331469.075 6  87531015.537 6  21375970.911
  20422711.449   107322077.417 6  83627593.037 6  20422714.439
  21271825.134   111784201.194 6  87104573.196 6  21271832.264
  23556296.041   123789177.469 5  96459099.900 5  23556303.601
  22722861.031   119409439.442 6  93046316.365 6  22722865.581
 22  5 25 12  3 39.0000000  0  8G10G15G16G18G23G26G27G29
  21692061.805   113992563.388 6  88825374.902 6  21692067.795
  23340376.087   122654510.641 6  95574945.210 6  23340381.947
  21943502.308   115313886.778 5  89854977.509 5  21943505.638
  21376251.541   112332959.410 6  87532176.836 6  21376254.361
  20422601.782   107321497.922 6  83627141.482 6  20422604.232
  21271974.970   111784988.121 6  87105186.380 6  21271981.880
  23555731.810   123786213.525 5  96456790.340 5  23555738.880
  22723251.822   119411498.088 6  93047920.506 6  22723257.072
 22  5 25 12  3 40.0000000  0  8G10G15G16G18G23G26G27G29
  21691599.936   113990136.800 7  88823484.054 7  21691606.436
  23340280.579   122654014.443 6  95574558.556 6  23340288.289
  21943246.705   115312544.962 5  89853931.940 5  21943249.835
  21376535.426   112334449.902 6  87533338.264 6  21376538.146
  20422491.512   107320919.110 6  83626690.461 6  20422494.112
  21272124.863   111785775.703 7  87105800.077 7  21272131.913
  23555167.718   123783249.677 5  96454480.838 5  23555174.538
  22723643.996   119413557.091 6  93049524.923 6  22723649.136
 22  5 25 12  3 41.0000000  0  8G10G15G16G18G23G26G27G29
  21691138.609   113987710.754 7  88821593.632 7  21691144.609
  23340187.451   122653518.938 6  95574172.449 6  23340193.441
  21942991.858   115311203.856 5  89852886.924 5  21942995.188
  21376818.598   112335940.659 6  87534499.885 6  21376821.738
  20422381.144   107320341.022 6  83626240.006 6  20422383.784
  21272275.245   111786563.962 6  87106414.302 6  21272281.675
  23554603.349   123780285.937 5  96452171.437 5  23554611.089
  22724036.136   119415616.500 6  93051129.650 6  22724040.986
 22  5 25 12  3 42.0000000  0  8G10G15G16G18G23G26G27G29
  21690677.028   113985285.098 7  88819703.514 7  21690683.168
  23340092.867   122653023.963 6  95573786.757 6  23340099.797
  21942736.288   115309863.326 5  89851842.350 5  21942739.878
  21377102.334   112337431.526 6  87535661.602 6  21377105.554
  20422271.444   107319763.514 6  83625790.001 6  20422274.134
  21272425.073   111787352.779 7  87107028.966 7  21272431.813
  23554040.561   123777322.208 5  96449862.035 5  23554047.321
  22724427.155   119417676.157 6  93052734.572 6  22724433.015
 22  5 25 12  3 43.0000000  0  8G10G15G16G18G23G26G27G29
  21690215.533   113982860.269 7  88817814.040 7  21690221.823
  23339999.278   122652529.942 6  95573401.812 6  23340005.738
  21942481.884   115308523.763 6  89850798.541 6  21942484.254
  21377386.444   112338922.898 6  87536823.708 6  21377388.754
  20422161.669   107319186.999 6  83625340.764 6  20422164.089
  21272575.457   111788142.564 7  87107644.382 7  21272582.187
  23553475.929   123774358.876 5  96447552.950 5  23553483.949
  22724819.506   119419736.477 6  93054340.014 6  22724825.246
 22  5 25 12  3 44.0000000  0  8G10G15G16G18G23G26G27G29
  21689754.360   113980435.912 7  88815924.933 7  21689760.280
  23339905.365   122652036.510 6  95573017.322 6  23339911.665
  21942226.787   115307184.831 6  89849755.211 6  21942229.747
  21377670.009   112340414.430 6  87537985.940 6  21377673.259
  20422052.538   107318611.138 6  83624892.048 6  20422054.498
  21272725.195   111788932.952 7  87108260.268 7  21272732.615
  23552911.627   123771395.571 5  96445243.885 5  23552919.677
  22725211.685   119421797.126 6  93055945.709 6  22725216.915
 22  5 25 12  3 45.0000000  0  8G10G15G16G18G23G26G27G29
  21689293.063   113978011.999 7  88814036.173 7  21689299.073
  23339811.982   122651543.692 6  95572633.305 6  23339817.592
  21941971.979   115305846.534 5  89848712.369 5  21941975.089
  21377953.727   112341906.130 6  87539148.306 6  21377956.897
  20421943.381   107318035.920 6  83624443.830 6  20421945.431
  21272876.386   111789723.962 7  87108876.641 7  21272883.326
  23552347.408   123768432.300 5  96442934.848 5  23552355.678
  22725604.195   119423858.091 6  93057551.646 6  22725609.165
 22  5 25 12  3 46.0000000  0  8G10G15G16G18G23G26G27G29
  21688831.898   113975588.845 7  88812148.007 7  21688838.068
  23339718.417   122651051.783 6  95572250.004 6  23339723.837
  21941717.698   115304509.145 5  89847670.257 5  21941719.838
  21378238.236   112343398.286 6  87540311.013 6  21378240.946
  20421833.549   107317461.643 6  83623996.344 6  20421835.879
  21273027.188   111790515.865 7  87109493.710 7  21273033.968
  23551782.851   123765469.428 5  96440626.107 5  23551790.921
  22725996.638   119425919.648 6  93059158.059 6  22726001.658
 22  5 25 12  3 47.0000000  0  8G10G15G16G18G23G26G27G29
  21688371.123   113973166.026 7  88810260.100 7  21688377.253
  23339624.633   122650560.343 6  95571867.064 6  23339630.303
  21941463.642   115303172.250 5  89846628.519 5  21941465.972
  21378521.788   112344890.457 6  87541473.745 6  21378524.928
  20421724.197   107316887.876 6  83623549.254 6  20421726.847
  21273178.016   111791308.244 7  87110111.148 7  21273184.916
  23551219.280   123762506.443 5  96438317.289 5  23551228.200
  22726388.760   119427981.401 6  93060764.616 6  22726394.190
 22  5 25 12  3 48.0000000  0  8G10G15G16G18G23G26G27G29
  21687909.865   113970743.650 7  88808372.531 7  21687916.195
  23339531.518   122650069.463 6  95571484.559 6  23339536.998
  21941209.484   115301835.977 5  89845587.262 5  21941211.894
  21378806.342   112346382.789 6  87542636.597 6  21378808.802
  20421615.204   107316314.736 6  83623102.641 6  20421618.124
  21273329.013   111792101.224 7  87110729.050 7  21273335.683
  23550655.733   123759543.487 5  96436008.495 5  23550663.693
  22726781.764   119430043.457 6  93062371.401 6  22726786.334
 22  5 25 12  3 49.0000000  0  8G10G15G16G18G23G26G27G29
  21687448.953   113968321.758 6  88806485.350 6  21687455.243
  23339437.970   122649579.214 6  95571102.556 6  23339443.750
  21940955.602   115300500.332 5  89844546.517 5  21940957.252
  21379090.417   112347875.298 6  87543799.595 6  21379093.007
  20421506.080   107315742.266 6  83622656.569 6  20421509.130
  21273480.438   111792894.855 6  87111347.457 6  21273486.688
  23550092.768   123756580.585 5  96433699.755 5  23550100.048
  22727173.791   119432105.837 6  93063978.449 6  22727178.571
 22  5 25 12  3 50.0000000  0  8G10G15G16G18G23G26G27G29
  21686987.956   113965900.623 7  88804598.752 7  21686994.826
  23339344.321   122649089.873 6  95570721.252 6  23339350.451
  21940701.276   115299165.626 5  89843506.484 5  21940703.646
  21379373.861   112349368.255 6  87544962.944 6  21379377.061
  20421397.498   107315170.748 6  83622211.229 6  20421400.498
  21273631.413   111793689.382 6  87111966.563 6  21273637.743
  23549529.281   123753618.042 5  96431391.281 5  23549537.081
  22727566.306   119434168.844 6  93065585.983 6  22727571.506
 22  5 25 12  3 51.0000000  0  8G10G15G16G18G23G26G27G29
  21686527.420   113963479.944 7  88802712.511 7  21686534.110
  23339250.699   122648601.119 6  95570340.405 6  23339257.639
  21940447.513   115297831.546 5  89842466.949 5  21940450.193
  21379657.681   112350861.383 6  87546126.413 6  21379660.841
  20421288.898   107314599.850 6  83621766.372 6  20421291.598
  21273782.305   111794484.493 6  87112586.138 6  21273789.145
  23548965.635   123750655.562 5  96429082.858 5  23548973.395
  22727959.271   119436232.167 6  93067193.767 6  22727964.051
 22  5 25 12  3 52.0000000  0  8G10G15G16G18G23G26G27G29
  21686066.828   113961059.728 7  88800826.626 7  21686073.398
  23339158.411   122648112.982 6  95569960.041 6  23339164.201
  21940193.796   115296498.090 5  89841427.884 5  21940195.596
  21379942.277   112352354.675 6  87547290.017 6  21379944.917
  20421180.358   107314029.617 6  83621322.036 6  20421182.728
  21273933.385   111795280.254 6  87113206.202 6  21273940.615
  23548400.994   123747693.114 5  96426774.462 5  23548409.564
  22728351.268   119438295.818 6  93068801.798 6  22728356.898
 22  5 25 12  3 53.0000000  0  8G10G15G16G18G23G26G27G29
  21685606.521   113958640.019 7  88798941.146 7  21685612.591
  23339065.169   122647625.460 6  95569580.153 6  23339071.709
  21939940.219   115295165.285 5  89840389.331 5  21939942.709
  21380226.228   112353848.146 6  87548453.764 6  21380229.488
  20421071.839   107313460.043 6  83620878.213 6  20421074.709
  21274085.029   111796076.626 6  87113826.756 6  21274092.079
  23547837.435   123744730.737 5  96424466.124 5  23547845.315
  22728744.524   119440359.792 6  93070410.086 6  22728749.404
 22  5 25 12  3 54.0000000  0  8G10G15G16G18G23G26G27G29
  21685146.343   113956220.601 7  88797055.885 7  21685152.433
  23338972.620   122647138.392 6  95569200.624 6  23338979.250
  21939686.223   115293832.964 5  89839351.170 5  21939689.213
  21380510.809   112355341.637 6  87549617.520 6  21380513.709
  20420963.830   107312890.985 6  83620434.790 6  20420966.460
  21274236.518   111796873.479 7  87114447.678 7  21274244.038
  23547273.079   123741768.280 5  96422157.698 5  23547281.249
  22729136.997   119442423.952 6  93072018.521 6  22729142.067
 22  5 25 12  3 55.0000000  0  8G10G15G16G18G23G26G27G29
  21684686.077   113953801.739 7  88795171.054 7  21684692.237
  23338880.389   122646652.021 6  95568821.636 6  23338887.029
  21939432.398   115292501.346 5  89838313.536 5  21939435.838
  21380795.294   112356835.361 6  87550781.456 6  21380797.804
  20420855.878   107312322.633 6  83619991.912 6  20420858.128
  21274389.370   111797671.015 7  87115069.136 7  21274395.660
  23546710.108   123738805.931 5  96419849.387 5  23546717.248
  22729529.938   119444488.504 6  93073627.250 6  22729534.938
 22  5 25 12  3 56.0000000  0  8G10G15G16G18G23G26G27G29
  21684225.635   113951383.538 7  88793286.741 7  21684231.805
  23338787.873   122646166.429 6  95568443.245 6  23338794.123
  21939179.265   115291170.558 5  89837276.561 5  21939182.035
  21381079.561   112358329.451 6  87551945.684 6  21381082.201
  20420746.831   107311755.124 6  83619549.706 6  20420750.021
  21274540.486   111798469.368 7  87115691.222 7  21274547.546
  23546146.063   123735843.835 5  96417541.264 5  23546153.843
  22729922.678   119446553.588 6  93075236.408 6  22729928.018
 22  5 25 12  3 57.0000000  0  8G10G15G16G18G23G26G27G29
  21683765.543   113948965.936 7  88791402.898 7  21683772.143
  23338695.852   122645681.593 6  95568065.457 6  23338701.862
  21938926.594   115289840.542 5  89836240.187 5  21938929.384
  21381363.851   112359823.830 6  87553110.132 6  21381366.551
  20420639.631   107311188.417 6  83619108.112 6  20420642.301
  21274692.487   111799268.452 7  87116313.886 7  21274699.757
  23545581.998   123732881.924 5  96415233.306 5  23545590.458
  22730316.114   119448619.099 6  93076845.898 6  22730321.244
 22  5 25 12  3 58.0000000  0  8G10G15G16G18G23G26G27G29
  21683305.434   113946549.148 7  88789519.689 7  21683311.784
  23338604.319   122645197.699 6  95567688.402 6  23338610.169
  21938673.611   115288511.511 6  89835204.583 6  21938676.491
  21381648.216   112361318.748 6  87554274.999 6  21381651.056
  20420531.739   107310622.696 6  83618667.284 6  20420534.789
  21274844.599   111800068.508 7  87116937.307 7  21274851.809
  23545018.631   123729920.399 5  96412925.630 5  23545026.261
  22730709.450   119450685.288 6  93078455.910 6  22730714.310
 22  5 25 12  3 59.0000000  0  8G10G15G16G18G23G26G27G29
  21682845.891   113944132.540 7  88787636.628 7  21682852.081
  23338511.036   122644714.148 6  95567311.611 6  23338517.906
  21938420.541   115287182.822 5  89834169.232 5  21938423.441
  21381932.242   112362813.530 6  87555439.767 6  21381935.272
  20420424.572   107310057.341 6  83618226.744 6  20420426.932
  21274997.001   111800868.913 7  87117560.996 7  21275004.111
  23544455.423   123726958.702 5  96410617.796 5  23544463.513
  22731102.994   119452751.536 6  93080065.972 6  22731107.384
 22  5 25 12  4  0.0000000  0  8G10G15G16G18G23G26G27G29
  21682386.294   113941716.898 7  88785754.307 7  21682392.574
  23338419.512   122644231.685 6  95566935.656 6  23338425.912
  21938167.837   115285855.247 5  89833134.750 5  21938170.687
  21382217.285   112364308.981 6  87556605.052 6  21382220.315
  20420316.674   107309493.121 6  83617787.104 6  20420319.734
  21275149.781   111801670.423 7  87118185.546 7  21275156.541
  23543892.323   123723997.484 5  96408310.360 5  23543899.623
  22731496.091   119454818.584 6  93081676.650 6  22731500.831
 22  5 25 12  4  1.0000000  0  8G10G15G16G18G23G26G27G29
  21681926.874   113939301.977 7  88783872.553 7  21681933.044
  23338329.796   122643750.090 6  95566560.399 6  23338334.586
  21937915.151   115284528.558 5  89832100.988 5  21937918.171
  21382502.133   112365804.847 6  87557770.659 6  21382504.953
  20420209.831   107308929.824 6  83617348.170 6  20420212.561
  21275302.469   111802472.789 7  87118810.767 7  21275309.249
  23543329.666   123721036.599 5  96406003.185 5  23543336.356
  22731889.436   119456886.200 6  93083287.775 6  22731894.326
 22  5 25 12  4  2.0000000  0  8G10G15G16G18G23G26G27G29
  21681467.364   113936887.541 7  88781991.179 7  21681473.554
  23338236.192   122643269.088 6  95566185.590 6  23338242.962
  21937662.858   115283202.541 5  89831067.720 5  21937666.228
  21382786.993   112367300.894 6  87558936.410 6  21382789.593
  20420103.219   107308367.180 6  83616909.747 6  20420105.239
  21275455.288   111803275.800 7  87119436.485 7  21275462.138
  23542765.424   123718075.794 5  96403696.052 5  23542773.154
  22732283.367   119458954.165 6  93084899.172 6  22732287.707
 22  5 25 12  4  3.0000000  0  8G10G15G16G18G23G26G27G29
  21681007.995   113934473.770 7  88780110.316 7  21681014.045
  23338144.606   122642788.913 6  95565811.428 6  23338150.756
  21937411.104   115281877.333 5  89830035.093 5  21937413.454
  21383070.959   112368797.295 6  87560102.442 6  21383074.119
  20419996.121   107307805.375 6  83616471.981 6  20419998.151
  21275608.239   111804079.597 7  87120062.823 7  21275615.129
  23542201.865   123715115.224 5  96401389.133 5  23542209.035
  22732677.375   119461022.642 6  93086510.971 6  22732681.555
 22  5 25 12  4  4.0000000  0  8G10G15G16G18G23G26G27G29
  21680548.761   113932060.899 7  88778230.161 7  21680554.741
  23338053.163   122642309.760 6  95565438.072 6  23338059.893
  21937158.742   115280553.176 5  89829003.293 5  21937161.732
  21383355.765   112370294.296 6  87561268.922 6  21383358.965
  20419889.113   107307244.664 6  83616035.061 6  20419891.543
  21275761.853   111804884.462 7  87120689.986 7  21275768.313
  23541638.447   123712155.146 5  96399082.582 5  23541646.347
  22733070.604   119463091.866 6  93088123.348 6  22733075.384
 22  5 25 12  4  5.0000000  0  8G10G15G16G18G23G26G27G29
  21680089.171   113929648.376 7  88776350.287 7  21680095.981
  23337962.374   122641831.105 6  95565065.092 6  23337969.174
  21936907.321   115279229.580 5  89827971.902 5  21936909.581
  21383641.218   112371791.372 6  87562435.488 6  21383644.058
  20419782.887   107306684.510 6  83615598.577 6  20419785.327
  21275915.499   111805689.835 7  87121317.544 7  21275921.449
  23541075.131   123709195.023 5  96396776.011 5  23541082.411
  22733464.309   119465161.320 6  93089735.901 6  22733469.229
 22  5 25 12  4  6.0000000  0  8G10G15G16G18G23G26G27G29
  21679630.530   113927236.585 7  88774470.960 7  21679636.970
  23337870.670   122641353.324 6  95564692.790 6  23337878.030
  21936655.049   115277906.837 6  89826941.207 6  21936657.799
  21383926.156   112373288.849 6  87563602.347 6  21383928.956
  20419676.326   107306125.237 6  83615162.784 6  20419678.696
  21276068.831   111806496.073 7  87121945.785 7  21276074.961
  23540511.764   123706235.195 5  96394469.650 5  23540519.494
  22733858.287   119467231.355 6  93091348.913 6  22733863.037
 22  5 25 12  4  7.0000000  0  8G10G15G16G18G23G26G27G29
  21679171.968   113924825.318 7  88772592.045 7  21679178.238
  23337779.863   122640876.196 6  95564320.997 6  23337787.203
  21936404.179   115276584.796 6  89825911.030 6  21936406.559
  21384210.995   112374786.552 6  87564769.382 6  21384214.095
  20419569.792   107305566.666 6  83614727.528 6  20419572.452
  21276222.298   111807302.969 7  87122574.533 7  21276228.488
  23539947.911   123703275.476 5  96392163.363 5  23539957.341
  22734251.681   119469301.749 6  93092962.200 6  22734257.281
 22  5 25 12  4  8.0000000  0  8G10G15G16G18G23G26G27G29
  21678712.683   113922414.357 7  88770713.385 7  21678719.373
  23337690.279   122640399.509 6  95563949.577 6  23337696.449
  21936152.351   115275263.246 6  89824881.266 6  21936154.691
  21384495.989   112376284.257 6  87565936.428 6  21384499.259
  20419463.342   107305008.597 6  83614292.678 6  20419466.632
  21276375.726   111808110.336 7  87123203.653 7  21276382.066
  23539385.213   123700315.665 5  96389857.032 5  23539394.523
  22734645.980   119471372.336 6  93094575.641 6  22734650.880
 22  5 25 12  4  9.0000000  0  8G10G15G16G18G23G26G27G29
  21678254.345   113920003.145 7  88768834.524 7  21678260.395
  23337599.265   122639922.739 6  95563578.060 6  23337605.315
  21935900.678   115273941.592 5  89823851.408 5  21935903.018
  21384780.789   112377781.433 6  87567103.051 6  21384783.889
  20419357.140   107304450.468 6  83613857.766 6  20419360.300
  21276529.183   111808917.594 7  87123832.683 7  21276535.823
  23538821.645   123697355.215 5  96387550.180 5  23538830.825
  22735040.771   119473442.516 6  93096188.762 6  22735044.991
 22  5 25 12  4 10.0000000  0  8G10G15G16G18G23G26G27G29
  21677795.620   113917592.516 7  88766956.117 7  21677801.800
  23337509.657   122639446.655 6  95563207.079 6  23337515.177
  21935649.728   115272620.693 6  89822822.127 6  21935652.328
  21385065.769   112379278.867 6  87568269.884 6  21385068.919
  20419251.376   107303893.095 6  83613423.442 6  20419254.136
  21276682.731   111809725.585 7  87124462.285 7  21276689.441
  23538259.102   123694394.874 5  96385243.433 5  23538267.272
  22735433.538   119475513.132 6  93097802.231 6  22735438.788
 22  5 25 12  4 11.0000000  0  8G10G15G16G18G23G26G27G29
  21677337.292   113915182.918 7  88765078.511 7  21677343.292
  23337419.147   122638971.742 6  95562837.025 6  23337424.917
  21935398.562   115271300.974 5  89821793.787 5  21935400.722
  21385351.019   112380777.019 6  87569437.281 6  21385353.999
  20419145.897   107303336.920 6  83612990.066 6  20419148.357
  21276836.198   111810534.741 7  87125092.800 7  21276843.208
  23537695.876   123691435.173 5  96382937.171 5  23537704.756
  22735827.984   119477584.617 6  93099416.362 6  22735832.934
 22  5 25 12  4 12.0000000  0  8G10G15G16G18G23G26G27G29
  21676878.444   113912773.785 7  88763201.265 7  21676884.534
  23337327.890   122638497.448 6  95562467.446 6  23337334.510
  21935147.746   115269981.898 6  89820765.932 6  21935150.216
  21385636.046   112382275.347 6  87570604.798 6  21385639.006
  20419040.131   107302781.411 6  83612557.201 6  20419042.631
  21276990.639   111811344.523 7  87125723.797 7  21276997.619
  23537130.854   123688475.534 5  96380630.972 5  23537141.284
  22736222.160   119479656.434 6  93101030.765 6  22736227.400
 22  5 25 12  4 13.0000000  0  8G10G15G16G18G23G26G27G29
  21676420.322   113910365.463 7  88761324.647 7  21676426.202
  23337239.205   122638024.093 6  95562098.604 6  23337244.315
  21934896.877   115268663.779 5  89819738.839 5  21934898.677
  21385921.329   112383774.183 6  87571772.726 6  21385924.429
  20418934.340   107302226.881 6  83612125.110 6  20418936.830
  21277144.759   111812155.258 7  87126355.539 7  21277151.949
  23536568.627   123685516.287 5  96378325.078 5  23536577.587
  22736617.259   119481728.906 6  93102645.672 6  22736621.799
 22  5 25 12  4 14.0000000  0  8G10G15G16G18G23G26G27G29
  21675962.252   113907957.241 7  88759448.113 7  21675968.172
  23337148.752   122637550.965 6  95561729.943 6  23337154.132
  21934646.169   115267345.933 5  89818711.934 5  21934648.109
  21386206.530   112385272.803 6  87572940.474 6  21386209.530
  20418828.723   107301672.630 6  83611693.225 6  20418831.533
  21277299.248   111812966.232 6  87126987.461 6  21277306.198
  23536006.702   123682556.715 5  96376018.918 5  23536014.762
  22737010.872   119483801.334 6  93104260.552 6  22737016.042
 22  5 25 12  4 15.0000000  0  8G10G15G16G18G23G26G27G29
  21675503.662   113905549.622 7  88757572.055 7  21675509.822
  23337058.895   122637078.608 6  95561361.867 6  23337064.835
  21934395.741   115266028.860 5  89817685.651 5  21934398.071
  21386492.143   112386771.735 6  87574108.480 6  21386494.723
  20418723.712   107301119.183 6  83611261.966 6  20418726.142
  21277453.467   111813777.983 7  87127619.994 7  21277460.547
  23535443.508   123679597.333 5  96373712.921 5  23535450.878
  22737405.411   119485874.215 6  93105875.784 6  22737410.231
 22  5 25 12  4 16.0000000  0  8G10G15G16G18G23G26G27G29
  21675045.753   113903142.620 7  88755696.467 7  21675051.843
  23336969.302   122636606.999 6  95560994.375 6  23336975.422
  21934145.228   115264712.574 5  89816659.966 5  21934147.508
  21386777.116   112388270.967 6  87575276.708 6  21386780.196
  20418618.595   107300566.538 6  83610831.332 6  20418620.885
  21277608.715   111814590.478 7  87128253.108 7  21277615.255
  23534880.561   123676638.159 5  96371407.078 5  23534888.071
  22737800.378   119487947.574 6  93107491.377 6  22737805.068
 22  5 25 12  4 17.0000000  0  8G10G15G16G18G23G26G27G29
  21674587.721   113900736.303 7  88753821.417 7  21674593.901
  23336879.182   122636136.200 6  95560627.527 6  23336885.482
  21933894.677   115263397.130 5  89815634.948 5  21933897.587
  21387062.273   112389770.600 6  87576445.253 6  21387065.263
  20418513.527   107300014.732 6  83610401.355 6  20418515.947
  21277762.748   111815403.810 7  87128886.860 7  21277769.928
  23534316.496   123673679.254 5  96369101.439 5  23534325.406
  22738194.698   119490021.476 6  93109107.405 6  22738199.648
 22  5 25 12  4 18.0000000  0  8G10G15G16G18G23G26G27G29
  21674129.986   113898330.537 7  88751946.794 7  21674136.176
  23336789.954   122635666.087 6  95560261.205 6  23336795.724
  21933644.200   115262082.407 5  89814610.484 5  21933647.040
  21387347.840   112391270.465 6  87577613.982 6  21387350.520
  20418408.798   107299463.673 6  83609971.960 6  20418411.418
  21277918.374   111816217.835 7  87129521.164 7  21277924.974
  23533753.381   123670720.509 5  96366795.895 5  23533762.671
  22738588.689   119492095.792 6  93110723.748 6  22738594.769
 22  5 25 12  4 19.0000000  0  8G10G15G16G18G23G26G27G29
  21673672.425   113895925.108 7  88750072.433 7  21673678.575
  23336701.216   122635196.484 6  95559895.274 6  23336706.276
  21933393.978   115260768.173 5  89813586.407 5  21933396.788
  21387633.644   112392770.363 6  87578782.730 6  21387636.344
  20418303.723   107298913.127 6  83609542.957 6  20418306.333
  21278072.734   111817032.333 7  87130155.841 7  21278079.934
  23533190.080   123667761.628 5  96364490.297 5  23533198.230
  22738983.911   119494170.251 6  93112340.217 6  22738989.231
 22  5 25 12  4 20.0000000  0  8G10G15G16G18G23G26G27G29
  21673214.708   113893520.410 7  88748198.641 7  21673220.648
  23336611.761   122634727.680 6  95559529.985 6  23336617.331
  21933144.371   115259454.845 5  89812563.045 5  21933146.681
  21387918.723   112394270.695 6  87579951.812 6  21387921.613
  20418199.045   107298363.493 6  83609114.673 6  20418201.355
  21278227.897   111817847.724 7  87130791.216 7  21278235.037
  23532627.825   123664803.113 5  96362184.952 5  23532635.695
  22739378.873   119496245.345 6  93113957.167 6  22739384.083
 22  5 25 12  4 21.0000000  0  8G10G15G16G18G23G26G27G29
  21672757.245   113891116.273 7  88746325.299 7  21672763.445
  23336522.600   122634259.673 6  95559165.298 6  23336528.340
  21932894.299   115258142.274 5  89811540.257 5  21932896.889
  21388204.134   112395771.312 6  87581121.128 6  21388207.104
  20418094.109   107297814.635 6  83608686.998 6  20418097.189
  21278383.511   111818663.834 7  87131427.139 7  21278390.111
  23532064.344   123661844.758 5  96359879.737 5  23532072.254
  22739774.203   119498320.848 6  93115574.434 6  22739778.973
 22  5 25 12  4 22.0000000  0  8G10G15G16G18G23G26G27G29
  21672299.867   113888712.849 7  88744452.498 7  21672306.017
  23336433.726   122633792.462 6  95558801.239 6  23336439.286
  21932645.268   115256830.531 6  89810518.132 6  21932647.338
  21388490.307   112397272.287 6  87582290.723 6  21388492.817
  20417990.596   107297266.619 6  83608259.967 6  20417992.966
  21278539.049   111819480.777 7  87132063.715 7  21278545.399
  23531501.552   123658886.666 5  96357574.757 5  23531510.122
  22740168.646   119500396.901 6  93117192.135 6  22740173.966
 22  5 25 12  4 23.0000000  0  8G10G15G16G18G23G26G27G29
  21671842.279   113886309.777 7  88742579.984 7  21671848.749
  23336344.382   122633325.759 6  95558437.578 6  23336350.822
  21932395.187   115255519.333 5  89809496.406 5  21932397.917
  21388775.422   112398773.337 6  87583460.367 6  21388778.382
  20417885.756   107296719.178 6  83607833.393 6  20417888.796
  21278694.545   111820298.223 7  87132700.686 7  21278701.045
  23530938.737   123655928.557 5  96355269.726 5  23530946.367
  22740563.410   119502473.156 6  93118810.005 6  22740569.060
 22  5 25 12  4 24.0000000  0  8G10G15G16G18G23G26G27G29
  21671385.458   113883907.487 7  88740708.070 7  21671391.588
  23336256.075   122632859.961 6  95558074.616 6  23336262.105
  21932145.666   115254209.081 5  89808475.439 5  21932148.406
  21389061.124   112400274.860 6  87584630.387 6  21389064.264
  20417782.552   107296172.675 6  83607407.542 6  20417784.732
  21278850.386   111821116.611 7  87133338.384 7  21278856.726
  23530375.706   123652970.776 5  96352964.951 5  23530384.456
  22740959.438   119504550.074 6  93120428.367 6  22740964.598
 22  5 25 12  4 25.0000000  0  8G10G15G16G18G23G26G27G29
  21670928.391   113881506.115 7  88738836.870 7  21670934.711
  23336167.939   122632395.229 6  95557712.474 6  23336172.769
  21931896.356   115252899.903 5  89807455.300 5  21931899.206
  21389346.871   112401776.996 6  87585800.883 6  21389350.401
  20417678.890   107295627.270 6  83606982.546 6  20417681.380
  21279005.637   111821936.047 6  87133976.906 6  21279012.927
  23529813.112   123650013.495 5  96350660.597 5  23529820.932
  22741355.338   119506627.718 6  93122047.309 6  22741359.768
 22  5 25 12  4 26.0000000  0  8G10G15G16G18G23G26G27G29
  21670471.787   113879105.243 7  88736966.055 7  21670477.467
  23336079.587   122631931.109 6  95557350.839 6  23336085.247
  21931647.741   115251591.382 5  89806435.665 5  21931650.471
  21389632.597   112403279.313 6  87586971.518 6  21389635.927
  20417574.622   107295082.544 6  83606558.093 6  20417577.762
  21279162.692   111822756.118 6  87134615.927 6  21279168.942
  23529249.760   123647056.290 5  96348356.295 5  23529258.000
  22741750.848   119508705.751 6  93123666.551 6  22741755.338
 22  5 25 12  4 27.0000000  0  8G10G15G16G18G23G26G27G29
  21670014.714   113876704.465 7  88735095.330 7  21670020.724
  23335989.991   122631467.238 6  95556989.385 6  23335996.591
  21931399.036   115250283.142 5  89805416.258 5  21931401.466
  21389918.659   112404781.449 6  87588142.004 6  21389922.039
  20417470.510   107294538.098 6  83606133.851 6  20417473.870
  21279318.644   111823576.451 7  87135255.144 7  21279325.234
  23528687.320   123644098.800 5  96346051.754 5  23528695.360
  22742146.206   119510783.726 6  93125285.745 6  22742150.316
 22  5 25 12  4 28.0000000  0  8G10G15G16G18G23G26G27G29
  21669558.412   113874304.534 7  88733225.259 7  21669563.972
  23335902.176   122631004.376 6  95556628.705 6  23335908.676
  21931150.371   115248975.896 5  89804397.632 5  21931153.041
  21390204.853   112406284.120 6  87589312.918 6  21390207.513
  20417367.646   107293994.693 6  83605710.417 6  20417370.436
  21279474.410   111824397.788 7  87135895.145 7  21279481.120
  23528124.202   123641141.736 5  96343747.552 5  23528133.122
  22742541.413   119512862.390 6  93126905.487 6  22742546.633
 22  5 25 12  4 29.0000000  0  8G10G15G16G18G23G26G27G29
  21669101.675   113871905.456 7  88731355.852 7  21669107.635
  23335814.796   122630542.478 6  95556268.794 6  23335821.056
  21930901.714   115247669.648 5  89803379.776 5  21930904.714
  21390490.475   112407787.308 6  87590484.234 6  21390494.065
  20417264.142   107293452.294 6  83605287.764 6  20417267.582
  21279631.337   111825220.070 6  87136535.880 6  21279637.757
  23527561.383   123638185.073 5  96341443.669 5  23527569.203
  22742937.127   119514941.761 6  93128525.765 6  22742941.907
 22  5 25 12  4 30.0000000  0  8G10G15G16G18G23G26G27G29
  21668645.184   113869506.904 7  88729486.850 7  21668651.284
  23335726.974   122630081.261 6  95555909.398 6  23335732.824
  21930653.051   115246364.131 5  89802362.486 5  21930655.621
  21390777.058   112409290.752 6  87591655.749 6  21390779.938
  20417161.583   107292910.626 6  83604865.686 6  20417164.113
  21279787.819   111826043.064 6  87137177.175 6  21279794.539
  23526999.632   123635228.576 5  96339139.890 5  23527007.582
  22743332.586   119517021.497 6  93130146.340 6  22743337.666
 22  5 25 12  4 31.0000000  0  8G10G15G16G18G23G26G27G29
  21668189.062   113867108.686 7  88727618.103 7  21668194.452
  23335639.984   122629620.502 6  95555550.366 6  23335645.214
  21930404.721   115245059.071 5  89801345.564 5  21930408.231
  21391062.979   112410794.207 6  87592827.268 6  21391066.159
  20417058.113   107292369.455 6  83604443.994 6  20417061.173
  21279944.455   111826866.532 7  87137818.839 7  21279951.165
  23526437.362   123632271.976 5  96336836.052 5  23526444.912
  22743727.974   119519101.430 6  93131767.055 6  22743733.514
 22  5 25 12  4 32.0000000  0  8G10G15G16G18G23G26G27G29
  21667732.529   113864710.718 7  88725749.566 7  21667738.389
  23335551.839   122629160.134 6  95555191.638 6  23335557.849
  21930156.382   115243754.438 6  89800328.967 6  21930159.242
  21391348.825   112412297.622 6  87593998.760 6  21391352.265
  20416955.509   107291828.716 6  83604022.649 6  20416958.179
  21280101.348   111827690.397 7  87138460.810 7  21280107.888
  23525874.508   123629315.206 5  96334532.081 5  23525882.828
  22744123.835   119521181.466 6  93133387.865 6  22744129.365
 22  5 25 12  4 33.0000000  0  8G10G15G16G18G23G26G27G29
  21667276.278   113862313.508 7  88723881.610 7  21667282.158
  23335464.812   122628700.689 6  95554833.630 6  23335470.332
  21929907.920   115242450.757 5  89799313.103 5  21929910.910
  21391635.481   112413801.483 6  87595170.604 6  21391638.531
  20416853.241   107291288.940 6  83603602.039 6  20416855.771
  21280258.479   111828515.160 7  87139103.481 7  21280264.819
  23525312.169   123626358.800 5  96332228.393 5  23525320.339
  22744519.882   119523262.141 6  93135009.166 6  22744525.372
 22  5 25 12  4 34.0000000  0  8G10G15G16G18G23G26G27G29
  21666820.192   113859916.659 7  88722013.936 7  21666826.122
  23335377.207   122628241.728 6  95554476.007 6  23335382.977
  21929659.692   115241147.586 5  89798297.650 5  21929662.972
  21391921.459   112415305.414 6  87596342.492 6  21391924.679
  20416750.466   107290749.691 6  83603181.853 6  20416752.966
  21280415.057   111829340.443 7  87139746.559 7  21280421.967
  23524749.855   123623402.348 5  96329924.668 5  23524757.765
  22744916.363   119525342.999 6  93136630.609 6  22744921.843
 22  5 25 12  4 35.0000000  0  8G10G15G16G18G23G26G27G29
  21666364.174   113857520.476 7  88720146.780 7  21666370.164
  23335290.507   122627783.556 6  95554118.988 6  23335295.567
  21929412.144   115239845.239 5  89797282.840 5  21929414.894
  21392207.800   112416809.686 6  87597514.650 6  21392210.700
  20416647.748   107290211.282 6  83602762.314 6  20416650.568
  21280572.295   111830166.523 7  87140390.255 7  21280579.165
  23524185.993   123620446.118 5  96327621.114 5  23524194.873
  22745312.875   119527424.389 6  93138252.462 6  22745317.265
 22  5 25 12  4 36.0000000  0  8G10G15G16G18G23G26G27G29
  21665908.520   113855124.877 7  88718280.087 7  21665914.140
  23335202.901   122627326.116 6  95553762.549 6  23335208.781
  21929164.117   115238543.639 5  89796268.592 5  21929167.077
  21392493.958   112418314.245 6  87598687.032 6  21392496.928
  20416545.246   107289673.640 6  83602343.368 6  20416547.986
  21280729.348   111830993.328 7  87141034.515 7  21280736.398
  23523623.681   123617490.053 5  96325317.694 5  23523632.171
  22745708.712   119529506.201 6  93139874.657 6  22745713.382
 22  5 25 12  4 37.0000000  0  8G10G15G16G18G23G26G27G29
  21665452.916   113852730.011 7  88716413.949 7  21665458.606
  23335115.251   122626869.539 6  95553406.770 6  23335121.561
  21928917.447   115237242.929 5  89795255.068 5  21928919.387
  21392780.592   112419819.215 6  87599859.736 6  21392783.272
  20416442.735   107289136.908 6  83601925.132 6  20416445.845
  21280887.167   111831820.987 7  87141679.442 7  21280894.097
  23523060.842   123614534.308 5  96323014.534 5  23523068.632
  22746105.163   119531588.585 6  93141497.288 6  22746110.103
 22  5 25 12  4 38.0000000  0  8G10G15G16G18G23G26G27G29
  21664997.429   113850335.937 7  88714548.450 7  21665002.859
  23335029.516   122626413.923 6  95553051.745 6  23335035.076
  21928670.173   115235943.197 5  89794242.283 5  21928672.803
  21393067.062   112421324.714 6  87601032.850 6  21393069.772
  20416340.943   107288601.159 6  83601507.669 6  20416344.183
  21281044.813   111832649.623 7  87142325.140 7  21281051.903
  23522499.462   123611578.958 5  96320711.664 5  23522506.722
  22746501.159   119533671.665 6  93143120.466 6  22746506.119
 22  5 25 12  4 39.0000000  0  8G10G15G16G18G23G26G27G29
  21664541.886   113847942.074 7  88712683.098 7  21664547.536
  23334943.116   122625958.626 6  95552696.971 6  23334948.796
  21928423.114   115234643.822 5  89793229.781 5  21928424.834
  21393353.232   112422830.074 6  87602205.856 6  21393356.152
  20416239.425   107288065.798 6  83601090.504 6  20416241.885
  21281202.423   111833478.605 7  87142971.093 7  21281209.403
  23521936.749   123608623.402 5  96318408.629 5  23521944.079
  22746897.476   119535754.773 6  93144743.663 6  22746902.726
 22  5 25 12  4 40.0000000  0  8G10G15G16G18G23G26G27G29
  21664086.156   113845548.730 7  88710818.171 7  21664091.976
  23334856.809   122625503.996 6  95552342.715 6  23334862.119
  21928175.890   115233345.151 5  89792217.835 5  21928177.270
  21393640.145   112424335.653 6  87603379.042 6  21393642.665
  20416138.056   107287531.121 6  83600673.878 6  20416140.086
  21281360.492   111834308.219 7  87143617.547 7  21281367.222
  23521374.416   123605667.948 5  96316105.687 5  23521382.196
  22747293.459   119537838.257 6  93146367.145 6  22747299.189
 22  5 25 12  4 41.0000000  0  8G10G15G16G18G23G26G27G29
  21663630.379   113843155.724 7  88708953.482 7  21663636.819
  23334769.704   122625049.843 6  95551988.830 6  23334775.414
  21927928.666   115232046.959 5  89791206.256 5  21927931.126
  21393926.234   112425841.283 6  87604552.246 6  21393929.364
  20416036.192   107286996.965 6  83600257.646 6  20416038.592
  21281518.983   111835138.324 7  87144264.380 7  21281525.403
  23520812.605   123602712.403 5  96313802.670 5  23520820.355
  22747690.184   119539921.927 6  93147990.784 6  22747695.414
 22  5 25 12  4 42.0000000  0  8G10G15G16G18G23G26G27G29
  21663175.758   113840763.242 7  88707089.215 7  21663181.288
  23334683.745   122624596.349 6  95551635.462 6  23334689.195
  21927681.712   115230749.477 5  89790195.237 5  21927683.622
  21394212.650   112427347.118 6  87605725.630 6  21394215.800
  20415934.293   107286463.535 6  83599841.990 6  20415937.073
  21281676.557   111835969.134 7  87144911.761 7  21281683.427
  23520249.208   123599756.992 5  96311499.748 5  23520258.028
  22748086.566   119542005.977 6  93149614.720 6  22748092.316
 22  5 25 12  4 43.0000000  0  8G10G15G16G18G23G26G27G29
  21662720.002   113838371.429 7  88705225.467 7  21662725.832
  23334597.299   122624143.634 6  95551282.698 6  23334603.269
  21927435.291   115229452.788 5  89789184.828 5  21927437.641
  21394499.428   112428853.296 6  87606899.280 6  21394502.598
  20415832.609   107285930.916 6  83599426.961 6  20415836.189
  21281834.326   111836800.696 7  87145559.733 7  21281841.686
  23519687.601   123596801.812 5  96309197.027 5  23519695.521
  22748483.441   119544090.534 6  93151239.048 6  22748489.231
 22  5 25 12  4 44.0000000  0  8G10G15G16G18G23G26G27G29
  21662264.980   113835980.150 7  88703362.130 7  21662271.130
  23334511.301   122623691.620 6  95550930.485 6  23334516.771
  21927188.472   115228156.822 5  89788174.994 5  21927191.402
  21394785.562   112430359.736 6  87608073.123 6  21394789.122
  20415731.804   107285399.040 6  83599012.511 6  20415734.714
  21281993.623   111837632.976 7  87146208.263 7  21281999.873
  23519125.017   123593846.784 5  96306894.400 5  23519133.277
  22748880.492   119546175.487 6  93152863.680 6  22748885.932
 22  5 25 12  4 45.0000000  0  8G10G15G16G18G23G26G27G29
  21661810.069   113833589.743 7  88701499.474 7  21661816.159
  23334425.824   122623240.630 6  95550579.061 6  23334431.044
  21926942.043   115226861.876 5  89787165.947 5  21926945.183
  21395073.003   112431866.717 6  87609247.393 6  21395075.993
  20415631.137   107284868.197 6  83598598.867 6  20415633.517
  21282152.268   111838466.267 7  87146857.574 7  21282158.528
  23518563.655   123590892.169 5  96304592.111 5  23518571.025
  22749278.343   119548261.173 6  93154488.880 6  22749283.063
 22  5 25 12  4 46.0000000  0  8G10G15G16G18G23G26G27G29
  21661355.787   113831200.215 7  88699637.511 7  21661361.587
  23334339.178   122622790.629 6  95550228.421 6  23334345.848
  21926695.961   115225567.990 5  89786157.714 5  21926698.491
  21395359.737   112433374.285 6  87610422.120 6  21395362.857
  20415530.577   107284338.440 6  83598186.069 6  20415532.617
  21282310.882   111839300.582 7  87147507.696 7  21282317.432
  23518001.346   123587938.039 5  96302290.192 5  23518008.786
  22749674.897   119550347.561 6  93156114.633 6  22749679.737
 22  5 25 12  4 47.0000000  0  8G10G15G16G18G23G26G27G29
  21660900.655   113828810.998 7  88697775.785 7  21660907.075
  23334253.674   122622341.103 6  95549878.136 6  23334260.014
  21926449.646   115224274.581 5  89785149.869 5  21926452.346
  21395646.413   112434881.868 6  87611596.856 6  21395649.923
  20415429.607   107283809.169 6  83597773.651 6  20415432.207
  21282469.127   111840135.359 7  87148158.162 7  21282476.397
  23517438.201   123584983.817 5  96299988.200 5  23517446.891
  22750070.983   119552434.177 6  93157740.559 6  22750076.693
 22  5 25 12  4 48.0000000  0  8G10G15G16G18G23G26G27G29
  21660446.319   113826422.556 7  88695914.671 7  21660452.579
  23334168.467   122621892.490 6  95549528.566 6  23334175.097
  21926204.317   115222982.116 5  89784142.750 5  21926206.387
  21395933.968   112436389.916 6  87612771.966 6  21395937.168
  20415329.276   107283280.841 6  83597361.971 6  20415331.406
  21282629.360   111840971.047 7  87148809.348 7  21282635.290
  23516876.621   123582029.988 5  96297686.516 5  23516883.811
  22750468.987   119554521.364 6  93159366.940 6  22750473.957
 22  5 25 12  4 49.0000000  0  8G10G15G16G18G23G26G27G29
  21659991.732   113824034.394 7  88694053.769 7  21659998.082
  23334083.158   122621444.269 6  95549179.310 6  23334089.568
  21925957.620   115221690.079 5  89783135.978 5  21925960.490
  21396220.666   112437897.919 6  87613947.027 6  21396223.646
  20415228.608   107282752.970 6  83596950.643 6  20415230.878
  21282788.652   111841807.160 6  87149460.863 6  21282794.622
  23516314.849   123579075.940 5  96295384.671 5  23516322.059
  22750865.903   119556608.705 6  93160993.433 6  22750870.953
 22  5 25 12  4 50.0000000  0  8G10G15G16G18G23G26G27G29
  21659537.570   113821646.922 7  88692193.399 7  21659543.930
  23333996.830   122620996.878 6  95548830.697 6  23334004.580
  21925711.991   115220398.909 5  89782129.873 5  21925714.621
  21396507.693   112439406.319 6  87615122.403 6  21396510.643
  20415128.136   107282225.976 6  83596539.998 6  20415130.616
  21282947.212   111842644.096 6  87150113.018 6  21282953.852
  23515752.468   123576122.231 5  96293083.079 5  23515760.058
  22751263.068   119558696.573 6  93162620.343 6  22751268.478
 22  5 25 12  4 51.0000000  0  8G10G15G16G18G23G26G27G29
  21659083.289   113819259.978 7  88690333.450 7  21659089.519
  23333912.313   122620550.191 6  95548482.623 6  23333919.353
  21925466.860   115219108.409 5  89781124.275 5  21925469.240
  21396794.456   112440914.939 6  87616297.954 6  21396797.786
  20415028.092   107281699.678 6  83596129.895 6  20415030.522
  21283106.579   111843481.698 7  87150765.696 7  21283113.169
  23515190.819   123573168.634 5  96290781.579 5  23515197.209
  22751660.545   119560784.818 6  93164247.547 6  22751665.485
 22  5 25 12  4 52.0000000  0  8G10G15G16G18G23G26G27G29
  21658629.265   113816873.819 6  88688474.105 6  21658635.295
  23333826.887   122620104.382 6  95548135.245 6  23333834.887
  21925221.267   115217818.876 5  89780119.456 5  21925223.687
  21397082.443   112442424.026 6  87617473.863 6  21397085.123
  20414928.183   107281174.355 6  83595720.557 6  20414930.793
  21283266.440   111844320.239 7  87151419.105 7  21283272.760
  23514629.599   123570215.376 5  96288480.346 5  23514635.829
  22752059.011   119562873.708 6  93165875.252 6  22752063.361
 22  5 25 12  4 53.0000000  0  8G10G15G16G18G23G26G27G29
  21658175.250   113814488.406 6  88686615.341 6  21658181.570
  23333742.489   122619659.472 6  95547788.564 6  23333749.839
  21924976.373   115216530.239 5  89779115.329 5  21924978.103
  21397368.550   112443933.535 6  87618650.099 6  21397372.090
  20414828.628   107280649.938 6  83595311.916 6  20414830.618
  21283426.427   111845159.647 6  87152073.189 6  21283432.327
  23514067.164   123567262.449 5  96286179.375 5  23514074.744
  22752456.422   119564963.187 6  93167503.412 6  22752461.032
 22  5 25 12  4 54.0000000  0  8G10G15G16G18G23G26G27G29
  21657721.676   113812103.586 7  88684757.049 7  21657727.956
  23333657.846   122619215.314 6  95547442.467 6  23333665.466
  21924731.517   115215242.386 5  89778111.804 5  21924733.407
  21397656.648   112445443.377 6  87619826.598 6  21397659.758
  20414728.701   107280126.321 6  83594903.905 6  20414731.041
  21283585.533   111845999.823 7  87152727.876 7  21283592.253
  23513504.957   123564309.721 5  96283878.551 5  23513511.947
  22752853.662   119567053.124 6  93169131.929 6  22752858.532
 22  5 25 12  4 55.0000000  0  8G10G15G16G18G23G26G27G29
  21657267.832   113809719.419 7  88682899.254 7  21657274.042
  23333574.581   122618771.929 6  95547096.971 6  23333580.921
  21924485.564   115213955.313 5  89777108.894 5  21924488.424
  21397943.948   112446953.536 6  87621003.339 6  21397947.028
  20414628.990   107279603.505 6  83594496.518 6  20414631.640
  21283745.326   111846840.765 7  87153383.147 7  21283752.416
  23512942.034   123561357.208 5  96281577.886 5  23512950.044
  22753251.250   119569143.555 6  93170760.828 6  22753256.760
 22  5 25 12  4 56.0000000  0  8G10G15G16G18G23G26G27G29
  21656814.414   113807335.852 7  88681041.933 7  21656820.464
  23333490.637   122618329.272 6  95546752.039 6  23333496.627
  21924241.390   115212669.029 5  89776106.591 5  21924243.380
  21398231.143   112448463.984 6  87622180.305 6  21398234.583
  20414529.714   107279081.484 6  83594089.748 6  20414532.274
  21283904.884   111847682.471 7  87154039.015 7  21283912.444
  23512380.655   123558404.916 5  96279277.414 5  23512388.385
  22753649.563   119571234.447 6  93172390.084 6  22753654.143
 22  5 25 12  4 57.0000000  0  8G10G15G16G18G23G26G27G29
  21656361.161   113804952.403 7  88679184.701 7  21656366.841
  23333405.633   122617886.867 6  95546407.321 6  23333412.973
  21923996.009   115211383.019 5  89775104.507 5  21923999.139
  21398519.016   112449974.244 6  87623357.133 6  21398521.956
  20414430.744   107278559.757 6  83593683.203 6  20414433.054
  21284065.753   111848524.417 7  87154695.077 7  21284072.693
  23511819.116   123555452.306 5  96276976.674 5  23511826.836
  22754046.389   119573325.297 6  93174019.317 6  22754052.119
 22  5 25 12  4 58.0000000  0  8G10G15G16G18G23G26G27G29
  21655907.965   113802569.469 7  88677327.870 7  21655913.645
  23333321.904   122617445.148 6  95546063.124 6  23333328.534
  21923750.629   115210097.717 5  89774102.977 5  21923754.349
  21398806.100   112451484.736 6  87624534.142 6  21398808.870
  20414331.581   107278038.743 6  83593277.224 6  20414334.111
  21284226.151   111849367.038 7  87155351.662 7  21284232.811
  23511255.884   123552499.810 5  96274676.048 5  23511265.564
  22754445.032   119575416.537 6  93175648.847 6  22754449.992
 22  5 25 12  4 59.0000000  0  8G10G15G16G18G23G26G27G29
  21655453.851   113800187.031 7  88675471.427 7  21655460.211
  23333237.216   122617004.033 6  95545719.397 6  23333244.346
  21923507.354   115208813.045 5  89773101.930 5  21923509.894
  21399093.987   112452995.387 6  87625711.274 6  21399096.747
  20414232.932   107277518.378 6  83592871.744 6  20414235.232
  21284387.070   111850210.292 7  87156008.743 7  21284393.370
  23510694.754   123549547.384 5  96272375.446 5  23510703.274
  22754843.849   119577508.082 6  93177278.626 6  22754848.099
 22  5 25 12  5  0.0000000  0  8G10G15G16G18G23G26G27G29
  21655000.940   113797805.183 7  88673615.441 7  21655006.910
  23333154.251   122616563.660 6  95545376.249 6  23333160.831
  21923262.540   115207529.145 5  89772101.493 5  21923265.650
  21399381.144   112454506.338 6  87626888.633 6  21399384.324
  20414133.586   107276998.793 6  83592466.869 6  20414136.226
  21284547.202   111851054.280 7  87156666.394 7  21284553.952
  23510133.045   123546595.144 5  96270075.005 5  23510140.865
  22755240.661   119579600.084 6  93178908.746 6  22755246.161
 22  5 25 12  5  1.0000000  0  8G10G15G16G18G23G26G27G29
  21654547.657   113795424.209 7  88671760.146 7  21654553.787
  23333070.519   122616124.277 6  95545033.873 6  23333077.379
  21923018.725   115206246.277 5  89771101.843 5  21923021.855
  21399668.911   112456017.835 6  87628066.423 6  21399671.941
  20414035.048   107276480.250 6  83592062.811 6  20414037.378
  21284708.103   111851899.268 7  87157324.825 7  21284714.813
  23509571.242   123543643.350 5  96267774.897 5  23509579.732
  22755639.616   119581692.823 6  93180539.453 6  22755644.436
 22  5 25 12  5  2.0000000  0  8G10G15G16G18G23G26G27G29
  21654094.535   113793043.568 7  88669905.100 7  21654100.845
  23332987.117   122615685.377 6  95544691.871 6  23332993.627
  21922774.868   115204963.899 5  89770102.585 5  21922777.338
  21399956.125   112457529.374 6  87629244.245 6  21399959.085
  20413935.840   107275962.222 6  83591659.164 6  20413939.100
  21284868.855   111852744.738 6  87157983.626 6  21284875.665
  23509010.025   123540691.464 5  96265474.750 5  23509017.865
  22756037.494   119583785.732 6  93182170.292 6  22756042.934
 22  5 25 12  5  3.0000000  0  8G10G15G16G18G23G26G27G29
  21653641.723   113790663.516 7  88668050.521 7  21653648.073
  23332903.601   122615247.235 6  95544350.471 6  23332910.641
  21922530.534   115203682.280 5  89769103.931 5  21922533.444
  21400244.117   112459041.203 6  87630422.295 6  21400246.887
  20413838.249   107275444.978 6  83591256.117 6  20413840.949
  21285029.733   111853590.962 7  87158643.023 7  21285036.663
  23508447.689   123537739.767 5  96263174.731 5  23508456.199
  22756435.645   119585879.089 6  93183801.472 6  22756441.405
 22  5 25 12  5  4.0000000  0  8G10G15G16G18G23G26G27G29
  21653188.703   113788284.043 7  88666196.389 7  21653195.113
  23332820.720   122614809.781 6  95544009.591 6  23332827.220
  21922287.840   115202401.397 5  89768105.850 5  21922289.560
  21400532.344   112460553.290 6  87631600.543 6  21400534.744
  20413739.569   107274928.480 6  83590853.641 6  20413742.229
  21285190.763   111854437.872 6  87159302.952 6  21285198.063
  23507886.817   123534788.243 5  96260874.815 5  23507894.147
  22756834.498   119587972.882 6  93185432.997 6  22756839.608
 22  5 25 12  5  5.0000000  0  8G10G15G16G18G23G26G27G29
  21652736.365   113785905.052 7  88664342.627 7  21652742.455
  23332738.178   122614372.955 6  95543669.209 6  23332744.178
  21922043.485   115201121.164 5  89767108.259 5  21922046.365
  21400819.980   112462065.556 6  87632778.933 6  21400822.670
  20413641.036   107274412.646 6  83590451.693 6  20413643.746
  21285352.828   111855285.423 6  87159963.386 6  21285359.138
  23507325.920   123531836.757 5  96258574.974 5  23507332.960
  22757233.261   119590066.997 6  93187064.772 6  22757238.211
 22  5 25 12  5  6.0000000  0  8G10G15G16G18G23G26G27G29
  21652283.690   113783526.907 7  88662489.534 7  21652289.970
  23332654.213   122613937.111 6  95543329.596 6  23332661.143
  21921800.251   115199841.952 5  89766111.471 5  21921802.391
  21401107.606   112463578.350 6  87633957.727 6  21401110.706
  20413542.791   107273897.826 6  83590050.540 6  20413546.081
  21285513.939   111856133.955 6  87160624.573 6  21285520.749
  23506764.217   123528885.720 5  96256275.473 5  23506771.647
  22757631.380   119592161.802 6  93188697.082 6  22757636.770
 22  5 25 12  5  7.0000000  0  8G10G15G16G18G23G26G27G29
  21651831.216   113781149.340 7  88660636.885 7  21651837.386
  23332572.156   122613502.007 6  95542990.555 6  23332578.366
  21921556.928   115198563.479 5  89765115.252 5  21921559.448
  21401395.578   112465091.418 6  87635136.745 6  21401398.598
  20413445.392   107273383.766 6  83589649.975 6  20413448.312
  21285675.378   111856983.210 6  87161286.334 6  21285682.078
  23506201.842   123525934.869 5  96253976.114 5  23506209.772
  22758030.469   119594257.061 6  93190329.743 6  22758035.369
 22  5 25 12  5  8.0000000  0  8G10G15G16G18G23G26G27G29
  21651379.198   113778772.311 7  88658784.662 7  21651385.068
  23332489.030   122613067.548 6  95542652.022 6  23332495.780
  21921313.445   115197285.678 5  89764119.574 5  21921316.585
  21401683.862   112466604.708 6  87636315.935 6  21401686.502
  20413348.358   107272870.438 6  83589249.972 6  20413350.178
  21285837.134   111857833.149 7  87161948.614 7  21285843.884
  23505639.347   123522984.098 5  96251676.819 5  23505648.017
  22758428.648   119596352.688 6  93191962.698 6  22758434.388
 22  5 25 12  5  9.0000000  0  8G10G15G16G18G23G26G27G29
  21650926.649   113776395.626 7  88656932.692 7  21650932.709
  23332406.755   122612633.562 6  95542313.850 6  23332413.355
  21921071.144   115196008.423 5  89763124.302 5  21921073.484
  21401972.046   112468118.043 6  87637495.155 6  21401974.256
  20413250.209   107272357.601 6  83588850.365 6  20413252.919
  21285999.426   111858683.571 7  87162611.277 7  21286005.876
  23505078.649   123520033.273 5  96249377.477 5  23505086.169
  22758827.423   119598448.511 6  93193595.797 6  22758832.993
 22  5 25 12  5 10.0000000  0  8G10G15G16G18G23G26G27G29
  21650474.454   113774019.197 7  88655080.936 7  21650480.454
  23332324.321   122612199.990 6  95541975.998 6  23332330.331
  21920828.007   115194731.573 5  89762129.357 5  21920830.527
  21402259.355   112469631.329 6  87638674.331 6  21402262.445
  20413152.246   107271845.219 6  83588451.105 6  20413155.656
  21286161.542   111859534.378 7  87163274.252 7  21286167.672
  23504517.374   123517082.307 5  96247078.018 5  23504524.654
  22759227.100   119600544.443 6  93195228.996 6  22759231.810
 22  5 25 12  5 11.0000000  0  8G10G15G16G18G23G26G27G29
  21650022.271   113771643.534 7  88653229.773 7  21650028.451
  23332241.665   122611767.303 6  95541638.850 6  23332248.095
  21920585.136   115193455.659 5  89761135.139 5  21920587.386
  21402547.213   112471145.065 6  87639853.867 6  21402550.463
  20413054.990   107271333.778 6  83588052.579 6  20413058.180
  21286323.562   111860386.115 7  87163937.936 7  21286329.822
  23503955.560   123514131.687 5  96244778.858 5  23503963.030
  22759626.361   119602640.996 6  93196862.666 6  22759630.701
 22  5 25 12  5 12.0000000  0  8G10G15G16G18G23G26G27G29
  21649570.676   113769268.761 7  88651379.304 7  21649576.636
  23332160.559   122611335.647 6  95541302.493 6  23332165.989
  21920342.691   115192180.810 5  89760141.734 5  21920344.621
  21402835.367   112472659.391 6  87641033.859 6  21402838.787
  20412958.088   107270823.412 6  83587654.890 6  20412960.918
  21286486.073   111861238.866 7  87164602.413 7  21286492.073
  23503393.962   123511181.540 5  96242480.028 5  23503401.642
  22760025.474   119604738.278 6  93198496.908 6  22760029.864
 22  5 25 12  5 13.0000000  0  8G10G15G16G18G23G26G27G29
  21649118.628   113766894.498 7  88649529.229 7  21649124.678
  23332077.955   122610904.648 6  95540966.645 6  23332084.145
  21920099.958   115190906.595 5  89759148.851 5  21920102.498
  21403123.708   112474173.912 6  87642214.007 6  21403127.008
  20412861.276   107270313.713 6  83587257.725 6  20412864.186
  21286648.468   111862092.268 6  87165267.405 6  21286654.228
  23502832.319   123508231.485 5  96240181.293 5  23502840.859
  22760423.248   119606835.916 6  93200131.431 6  22760429.078
 22  5 25 12  5 14.0000000  0  8G10G15G16G18G23G26G27G29
  21648666.910   113764520.543 6  88647679.398 6  21648673.230
  23331996.069   122610474.094 6  95540631.150 6  23332002.309
  21919857.608   115189632.878 5  89758156.353 5  21919860.058
  21403412.156   112475688.420 6  87643394.138 6  21403415.046
  20412764.260   107269804.518 6  83586860.955 6  20412767.030
  21286810.776   111862946.113 6  87165932.739 6  21286816.806
  23502271.326   123505281.311 5  96237882.454 5  23502279.296
  22760824.151   119608933.724 6  93201766.082 6  22760828.221
 22  5 25 12  5 15.0000000  0  8G10G15G16G18G23G26G27G29
  21648215.173   113762147.130 7  88645829.984 7  21648221.063
  23331913.243   122610044.239 6  95540296.199 6  23331920.033
  21919615.553   115188359.868 5  89757164.393 5  21919618.053
  21403700.128   112477203.179 6  87644574.468 6  21403703.088
  20412667.634   107269296.038 6  83586464.745 6  20412670.244
  21286973.290   111863800.651 6  87166598.605 6  21286979.620
  23501709.965   123502331.293 5  96235583.743 5  23501717.335
  22761221.520   119611031.930 6  93203401.050 6  22761227.440
 22  5 25 12  5 16.0000000  0  8G10G15G16G18G23G26G27G29
  21647763.581   113759774.215 6  88643980.966 6  21647769.451
  23331831.894   122609615.004 6  95539961.734 6  23331838.874
  21919373.036   115187087.501 5  89756172.941 5  21919375.616
  21403988.669   112478718.112 6  87645754.946 6  21403991.639
  20412570.675   107268788.240 6  83586069.047 6  20412573.615
  21287135.897   111864655.815 6  87167264.973 6  21287142.287
  23501148.930   123499381.322 5  96233285.087 5  23501156.360
  22761621.914   119613130.474 6  93205036.275 6  22761626.884
 22  5 25 12  5 17.0000000  0  8G10G15G16G18G23G26G27G29
  21647312.417   113757401.944 6  88642132.442 6  21647318.397
  23331751.046   122609186.555 6  95539627.885 6  23331757.166
  21919131.115   115185815.978 5  89755182.152 5  21919133.325
  21404276.997   112480233.401 6  87646935.677 6  21404279.817
  20412474.955   107268281.256 6  83585673.998 6  20412477.465
  21287298.676   111865511.792 6  87167931.966 6  21287305.256
  23500586.618   123496431.619 5  96230986.617 5  23500595.398
  22762021.271   119615229.534 6  93206671.898 6  22762026.301
 22  5 25 12  5 18.0000000  0  8G10G15G16G18G23G26G27G29
  21646860.504   113755030.412 7  88640284.491 7  21646866.844
  23331669.835   122608758.969 6  95539294.702 6  23331676.375
  21918888.973   115184545.320 5  89754192.014 5  21918892.093
  21404565.461   112481749.084 6  87648116.729 6  21404568.181
  20412378.011   107267775.181 6  83585279.655 6  20412380.911
  21287462.048   111866368.606 6  87168599.609 6  21287468.178
  23500026.951   123493482.197 5  96228688.360 5  23500033.451
  22762420.588   119617329.134 6  93208307.946 6  22762425.908
 22  5 25 12  5 19.0000000  0  8G10G15G16G18G23G26G27G29
  21646409.434   113752659.479 7  88638437.021 7  21646415.814
  23331589.092   122608332.122 6  95538962.084 6  23331594.862
  21918647.766   115183275.437 5  89753202.505 5  21918650.496
  21404853.978   112483265.075 6  87649298.016 6  21404856.618
  20412282.698   107267269.899 6  83584885.924 6  20412284.768
  21287625.554   111867226.176 6  87169267.851 6  21287631.294
  23499465.589   123490533.017 5  96226390.301 5  23499472.069
  22762820.262   119619429.223 6  93209944.376 6  22762825.582
 22  5 25 12  5 20.0000000  0  8G10G15G16G18G23G26G27G29
  21645958.534   113750288.968 7  88636589.868 7  21645964.754
  23331507.342   122607905.859 6  95538629.944 6  23331513.342
  21918406.139   115182006.153 5  89752213.447 5  21918408.659
  21405142.390   112484781.182 6  87650479.401 6  21405145.380
  20412186.009   107266765.207 6  83584492.666 6  20412188.759
  21287788.183   111868084.318 6  87169936.526 6  21287794.573
  23498903.976   123487583.774 5  96224092.197 5  23498910.556
  22763220.482   119621529.567 6  93211581.007 6  22763225.052
 22  5 25 12  5 21.0000000  0  8G10G15G16G18G23G26G27G29
  21645508.033   113747919.177 6  88634743.281 6  21645513.533
  23331426.407   122607480.444 6  95538298.450 6  23331432.287
  21918165.412   115180737.749 5  89751225.082 5  21918167.082
  21405431.069   112486297.701 6  87651661.104 6  21405433.799
  20412089.946   107266261.420 6  83584100.103 6  20412093.016
  21287951.417   111868943.303 6  87170605.872 6  21287958.107
  23498343.098   123484634.906 5  96221794.390 5  23498350.468
  22763620.187   119623630.495 6  93213218.080 6  22763625.157
 22  5 25 12  5 22.0000000  0  8G10G15G16G18G23G26G27G29
  21645057.031   113745549.558 7  88632896.830 7  21645062.731
  23331345.921   122607055.363 6  95537967.217 6  23331351.231
  21917923.410   115179469.678 5  89750236.989 5  21917925.560
  21405719.452   112487814.093 6  87652842.705 6  21405722.412
  20411994.124   107265757.986 6  83583707.814 6  20411996.994
  21288115.137   111869802.618 6  87171275.467 6  21288121.817
  23497782.567   123481685.766 5  96219496.362 5  23497788.607
  22764019.828   119625731.451 6  93214855.189 6  22764025.118
 22  5 25 12  5 23.0000000  0  8G10G15G16G18G23G26G27G29
  21644605.684   113743180.595 6  88631050.888 6  21644612.064
  23331265.973   122606631.013 6  95537636.558 6  23331270.533
  21917683.040   115178202.416 5  89749249.516 5  21917685.360
  21406008.563   112489330.803 6  87654024.557 6  21406011.193
  20411898.235   107265255.364 6  83583316.164 6  20411901.225
  21288278.928   111870662.714 6  87171945.662 6  21288285.468
  23497221.355   123478736.849 5  96217198.511 5  23497228.205
  22764419.805   119627832.883 6  93216492.666 6  22764424.755
 22  5 25 12  5 24.0000000  0  8G10G15G16G18G23G26G27G29
  21644154.907   113740812.116 6  88629205.316 6  21644161.277
  23331183.916   122606207.348 6  95537306.434 6  23331189.946
  21917441.542   115176935.816 5  89748262.549 5  21917444.102
  21406296.864   112490847.720 6  87655206.569 6  21406299.594
  20411803.411   107264753.431 6  83582925.048 6  20411805.711
  21288443.065   111871523.463 6  87172616.375 6  21288449.185
  23496659.226   123475788.022 5  96214900.723 5  23496667.296
  22764819.944   119629934.675 6  93218130.428 6  22764824.584
 22  5 25 12  5 25.0000000  0  8G10G15G16G18G23G26G27G29
  21643703.891   113738444.319 6  88627360.288 6  21643710.451
  23331103.689   122605784.460 6  95536976.912 6  23331109.269
  21917200.107   115175670.035 5  89747276.234 5  21917203.037
  21406585.543   112492364.977 6  87656388.838 6  21406588.473
  20411708.065   107264252.334 6  83582534.580 6  20411710.615
  21288606.511   111872384.998 6  87173287.699 6  21288613.081
  23496098.114   123472839.463 5  96212603.155 5  23496105.314
  22765220.446   119632036.960 6  93219768.566 6  22765224.736
 22  5 25 12  5 26.0000000  0  8G10G15G16G18G23G26G27G29
  21643253.974   113736076.825 6  88625515.485 6  21643260.244
  23331022.907   122605362.033 5  95536647.753 5  23331029.067
  21916959.272   115174404.742 5  89746290.298 5  21916961.852
  21406874.048   112493882.236 6  87657571.122 6  21406877.208
  20411612.632   107263751.724 6  83582144.494 6  20411615.372
  21288771.031   111873246.968 6  87173959.375 6  21288777.191
  23495537.262   123469890.799 5  96210305.496 5  23495544.722
  22765619.356   119634139.407 6  93221406.836 6  22765625.396
 22  5 25 12  5 27.0000000  0  8G10G15G16G18G23G26G27G29
  21642803.947   113733709.953 6  88623671.183 6  21642809.787
  23330943.348   122604940.339 6  95536319.158 6  23330948.248
  21916718.604   115173140.237 5  89745304.960 5  21916721.684
  21407163.180   112495399.810 6  87658753.649 6  21407165.830
  20411517.546   107263251.911 6  83581755.029 6  20411520.226
  21288935.288   111874109.727 6  87174631.651 6  21288941.598
  23494975.634   123466942.313 5  96208007.969 5  23494983.934
  22766019.836   119636242.334 6  93223045.470 6  22766025.446
 22  5 25 12  5 28.0000000  0  8G10G15G16G18G23G26G27G29
  21642353.622   113731343.691 6  88621827.339 6  21642359.742
  23330862.668   122604519.411 6  95535991.170 6  23330868.178
  21916478.009   115171876.494 5  89744320.241 5  21916481.169
  21407451.907   112496917.673 6  87659936.401 6  21407454.867
  20411421.865   107262752.879 6  83581366.173 6  20411425.215
  21289099.583   111874973.219 6  87175304.490 6  21289105.833
  23494415.367   123463994.031 5  96205710.617 5  23494422.797
  22766420.017   119638345.706 6  93224684.456 6  22766425.497
 22  5 25 12  5 29.0000000  0  8G10G15G16G18G23G26G27G29
  21641902.887   113728978.307 6  88619984.187 6  21641909.587
  23330782.908   122604099.538 6  95535664.004 6  23330788.908
  21916237.818   115170613.813 5  89743336.310 5  21916240.728
  21407741.177   112498436.123 6  87661119.607 6  21407743.607
  20411327.262   107262254.912 6  83580978.147 6  20411330.492
  21289264.037   111875837.736 6  87175978.134 6  21289270.057
  23493854.194   123461046.230 5  96203413.639 5  23493861.684
  22766820.558   119640449.825 6  93226324.017 6  22766825.858
 22  5 25 12  5 30.0000000  0  8G10G15G16G18G23G26G27G29
  21641453.184   113726613.637 6  88618141.582 6  21641459.654
  23330704.051   122603680.482 6  95535337.455 6  23330708.771
  21915997.882   115169352.010 5  89742353.095 5  21916000.932
  21408029.625   112499954.972 6  87662303.122 6  21408032.885
  20411233.052   107261757.842 6  83580590.812 6  20411235.712
  21289428.350   111876703.094 6  87176652.448 6  21289434.940
  23493293.004   123458098.716 5  96201116.865 5  23493301.204
  22767220.592   119642554.492 6  93227964.024 6  22767226.382
 22  5 25 12  5 31.0000000  0  8G10G15G16G18G23G26G27G29
  21641003.009   113724249.521 6  88616299.418 6  21641009.569
  23330624.330   122603262.102 6  95535011.440 6  23330628.810
  21915757.940   115168090.892 5  89741370.410 5  21915760.790
  21408319.222   112501474.051 6  87663486.818 6  21408321.982
  20411139.208   107261261.488 6  83580204.047 6  20411141.188
  21289592.942   111877569.151 6  87177327.295 6  21289599.632
  23492730.929   123455151.319 5  96198820.219 5  23492739.859
  22767622.062   119644659.561 6  93229604.332 6  22767626.982
 22  5 25 12  5 32.0000000  0  8G10G15G16G18G23G26G27G29
  21640553.513   113721885.976 6  88614457.695 6  21640559.693
  23330545.329   122602844.453 6  95534686.010 6  23330550.049
  21915518.166   115166830.553 5  89740388.327 5  21915521.086
  21408608.414   112502993.399 6  87664670.727 6  21408610.934
  20411044.435   107260765.882 6  83579817.866 6  20411047.145
  21289758.131   111878435.923 6  87178002.694 6  21289764.551
  23492170.839   123452204.112 5  96196523.683 5  23492179.229
  22768022.327   119646765.057 6  93231244.972 6  22768027.747
 22  5 25 12  5 33.0000000  0  8G10G15G16G18G23G26G27G29
  21640103.407   113719522.791 6  88612616.257 6  21640109.827
  23330465.086   122602427.281 6  95534360.935 6  23330470.386
  21915277.898   115165570.713 5  89739406.641 5  21915281.218
  21408897.249   112504512.796 6  87665854.672 6  21408900.139
  20410949.761   107260270.798 6  83579432.093 6  20410952.971
  21289922.798   111879303.176 6  87178678.480 6  21289929.938
  23491610.463   123449256.846 5  96194227.116 5  23491618.953
  22768424.229   119648870.747 6  93232885.759 6  22768428.599
 22  5 25 12  5 34.0000000  0  8G10G15G16G18G23G26G27G29
  21639654.606   113717160.367 7  88610775.411 7  21639660.336
  23330385.701   122602011.034 6  95534036.594 6  23330391.181
  21915038.235   115164311.856 5  89738425.701 5  21915042.025
  21409186.198   112506032.657 6  87667038.974 6  21409189.468
  20410855.539   107259776.697 6  83579047.077 6  20410858.759
  21290088.466   111880171.348 7  87179354.975 7  21290095.126
  23491050.322   123446309.908 5  96191930.821 5  23491057.092
  22768824.380   119650977.084 6  93234527.057 6  22768829.360
 22  5 25 12  5 35.0000000  0  8G10G15G16G18G23G26G27G29
  21639204.791   113714798.693 7  88608935.152 7  21639211.041
  23330306.574   122601595.649 6  95533712.918 6  23330312.554
  21914799.150   115163053.859 5  89737445.450 5  21914802.240
  21409475.719   112507552.926 6  87668223.596 6  21409478.629
  20410762.219   107259283.483 6  83578662.760 6  20410764.919
  21290254.183   111881040.396 7  87180032.157 7  21290260.353
  23490488.418   123443363.324 5  96189634.769 5  23490496.418
  22769225.346   119653083.979 6  93236168.793 6  22769230.296
 22  5 25 12  5 36.0000000  0  8G10G15G16G18G23G26G27G29
  21638755.294   113712436.981 7  88607094.850 7  21638761.504
  23330227.204   122601180.402 6  95533389.349 6  23330233.564
  21914560.270   115161796.025 5  89736465.324 5  21914562.860
  21409765.094   112509072.862 6  87669407.960 6  21409768.024
  20410668.088   107258790.435 6  83578278.560 6  20410670.938
  21290419.248   111881909.560 7  87180709.419 7  21290425.658
  23489927.614   123440416.251 5  96187338.361 5  23489935.684
  22769626.529   119655190.715 6  93237810.399 6  22769630.929
 22  5 25 12  5 37.0000000  0  8G10G15G16G18G23G26G27G29
  21638306.010   113710075.873 6  88605255.035 6  21638312.140
  23330149.372   122600765.875 6  95533066.340 6  23330154.102
  21914321.011   115160538.946 5  89735485.784 5  21914323.691
  21410053.977   112510593.084 6  87670592.551 6  21410057.497
  20410574.528   107258298.157 6  83577894.972 6  20410577.428
  21290584.746   111882779.454 6  87181387.257 6  21290591.386
  23489367.458   123437469.418 5  96185042.122 5  23489374.088
  22770026.644   119657297.881 6  93239452.348 6  22770032.384
 22  5 25 12  5 38.0000000  0  8G10G15G16G18G23G26G27G29
  21637856.864   113707715.356 6  88603415.670 6  21637863.104
  23330070.469   122600352.065 6  95532743.895 6  23330075.439
  21914081.945   115159282.594 5  89734506.792 5  21914084.915
  21410344.110   112512113.576 6  87671777.350 6  21410346.540
  20410481.293   107257806.638 6  83577511.969 6  20410483.883
  21290750.636   111883650.057 6  87182065.653 6  21290757.076
  23488805.827   123434522.747 5  96182746.011 5  23488813.967
  22770427.556   119659405.501 6  93241094.640 6  22770432.826
 22  5 25 12  5 39.0000000  0  8G10G15G16G18G23G26G27G29
  21637407.820   113705355.633 6  88601576.927 6  21637413.740
  23329991.624   122599939.216 6  95532422.192 6  23329996.914
  21913843.073   115158027.228 5  89733528.598 5  21913845.333
  21410633.365   112513634.576 6  87672962.547 6  21410635.965
  20410388.042   107257316.091 6  83577129.724 6  20410390.702
  21290916.244   111884521.614 6  87182744.791 6  21290922.934
  23488245.908   123431576.441 5  96180450.203 5  23488253.158
  22770829.272   119661513.761 6  93242737.441 6  22770834.462
 22  5 25 12  5 40.0000000  0  8G10G15G16G18G23G26G27G29
  21636958.953   113702996.182 6  88599738.395 6  21636964.693
  23329913.285   122599526.743 6  95532100.798 6  23329918.805
  21913604.702   115156772.289 5  89732550.729 5  21913607.162
  21410922.530   112515155.534 6  87674147.700 6  21410925.470
  20410294.315   107256825.995 6  83576747.832 6  20410297.195
  21291081.748   111885393.581 6  87183424.242 6  21291088.688
  23487685.215   123428629.983 5  96178154.251 5  23487691.875
  22771230.352   119663622.135 6  93244380.325 6  22771235.882
 22  5 25 12  5 41.0000000  0  8G10G15G16G18G23G26G27G29
  21636510.059   113700637.264 6  88597900.284 6  21636516.079
  23329835.321   122599114.966 6  95531779.926 6  23329840.531
  21913365.444   115155518.045 5  89731573.385 5  21913368.314
  21411211.997   112516676.700 6  87675333.027 6  21411214.897
  20410200.939   107256336.618 6  83576366.494 6  20410204.359
  21291248.031   111886266.220 6  87184104.219 6  21291254.701
  23487124.126   123425683.657 5  96175858.426 5  23487131.726
  22771632.014   119665730.908 6  93246023.522 6  22771637.034
 22  5 25 12  5 42.0000000  0  8G10G15G16G18G23G26G27G29
  21636061.566   113698279.051 6  88596062.717 6  21636067.096
  23329756.296   122598704.004 6  95531459.702 6  23329761.946
  21913127.238   115154264.648 5  89730596.721 5  21913130.438
  21411501.423   112518198.262 6  87676518.654 6  21411504.413
  20410107.781   107255848.105 6  83575985.838 6  20410110.831
  21291414.496   111887139.678 6  87184784.834 6  21291421.116
  23486563.700   123422737.643 5  96173562.840 5  23486571.340
  22772032.312   119667840.215 6  93247667.131 6  22772038.382
 22  5 25 12  5 43.0000000  0  8G10G15G16G18G23G26G27G29
  21635612.840   113695921.494 6  88594225.664 6  21635618.470
  23329678.626   122598293.854 6  95531140.105 6  23329684.016
  21912889.125   115153012.082 5  89729620.698 5  21912891.865
  21411791.274   112519720.169 6  87677704.556 6  21411794.244
  20410015.463   107255360.426 6  83575605.825 6  20410018.573
  21291580.360   111888013.957 6  87185466.089 6  21291587.230
  23486003.424   123419791.845 5  96171267.424 5  23486010.564
  22772433.923   119669950.034 6  93249311.144 6  22772439.863
 22  5 25 12  5 44.0000000  0  8G10G15G16G18G23G26G27G29
  21635164.626   113693564.572 6  88592389.093 6  21635169.776
  23329600.368   122597884.460 6  95530821.096 6  23329606.308
  21912650.864   115151760.319 5  89728645.299 5  21912653.344
  21412080.874   112521242.393 6  87678890.703 6  21412083.464
  20409922.893   107254873.549 6  83575226.448 6  20409926.203
  21291747.977   111888888.986 6  87186147.933 6  21291753.857
  23485443.634   123416846.257 5  96168972.160 5  23485450.054
  22772835.552   119672060.350 6  93250955.540 6  22772840.992
 22  5 25 12  5 45.0000000  0  8G10G15G16G18G23G26G27G29
  21634715.960   113691207.916 6  88590552.741 6  21634721.460
  23329522.515   122597475.510 6  95530502.433 6  23329528.425
  21912412.389   115150508.994 5  89727670.225 5  21912415.269
  21412369.739   112522764.580 6  87680076.820 6  21412373.119
  20409830.551   107254387.139 6  83574847.421 6  20409833.481
  21291913.744   111889764.426 6  87186830.088 6  21291920.544
  23484881.550   123413900.522 5  96166676.789 5  23484889.610
  22773237.352   119674170.781 6  93252600.029 6  22773242.582
 22  5 25 12  5 46.0000000  0  8G10G15G16G18G23G26G27G29
  21634267.431   113688851.595 6  88588716.650 6  21634273.211
  23329444.575   122597067.008 6  95530184.123 6  23329450.555
  21912174.335   115149258.165 5  89726695.559 5  21912177.145
  21412660.136   112524286.785 6  87681262.953 6  21412663.166
  20409738.233   107253901.238 6  83574468.800 6  20409740.993
  21292080.458   111890640.348 7  87187512.623 7  21292087.358
  23484321.801   123410954.734 5  96164381.374 5  23484328.321
  22773639.113   119676281.375 6  93254244.653 6  22773644.303
 22  5 25 12  5 47.0000000  0  8G10G15G16G18G23G26G27G29
  21633819.167   113686495.977 7  88586881.105 7  21633824.877
  23329366.437   122596659.347 6  95529866.468 6  23329372.917
  21911936.543   115148008.193 5  89725721.553 5  21911938.863
  21412949.543   112525809.374 6  87682449.387 6  21412952.333
  20409646.236   107253416.178 6  83574090.837 6  20409648.896
  21292247.509   111891517.089 7  87188195.794 7  21292253.959
  23483761.411   123408009.221 5  96162086.162 5  23483768.101
  22774041.875   119678392.535 6  93255889.695 6  22774046.255
 22  5 25 12  5 48.0000000  0  8G10G15G16G18G23G26G27G29
  21633370.818   113684140.869 6  88585045.963 6  21633376.788
  23329289.693   122596252.357 6  95529549.326 6  23329295.343
  21911698.526   115146758.897 5  89724748.084 5  21911701.606
  21413239.422   112527332.177 6  87683635.982 6  21413242.632
  20409554.131   107252931.857 6  83573713.442 6  20409556.531
  21292414.301   111892394.493 6  87188879.486 6  21292421.071
  23483200.416   123405063.795 5  96159791.043 5  23483207.406
  22774443.030   119680504.051 6  93257535.034 6  22774447.850
 22  5 25 12  5 49.0000000  0  8G10G15G16G18G23G26G27G29
  21632922.841   113681786.211 6  88583211.167 6  21632928.781
  23329212.514   122595845.911 6  95529232.625 6  23329218.514
  21911461.432   115145510.217 5  89723775.085 5  21911464.652
  21413529.300   112528855.102 6  87684822.683 6  21413532.270
  20409461.639   107252448.128 6  83573336.506 6  20409464.569
  21292580.791   111893272.469 6  87189563.619 6  21292588.121
  23482639.762   123402118.402 5  96157495.940 5  23482648.062
  22774844.932   119682615.856 6  93259180.594 6  22774849.672
 22  5 25 12  5 50.0000000  0  8G10G15G16G18G23G26G27G29
  21632474.882   113679432.012 6  88581376.733 6  21632480.832
  23329135.072   122595440.096 6  95528916.409 6  23329141.222
  21911223.421   115144262.164 5  89722802.572 5  21911226.991
  21413819.328   112530378.179 6  87686009.494 6  21413822.028
  20409369.899   107251965.056 6  83572960.086 6  20409372.249
  21292748.381   111894151.060 6  87190248.236 6  21292755.411
  23482079.048   123399173.066 5  96155200.876 5  23482087.208
  22775246.978   119684727.978 6  93260826.400 6  22775251.448
 22  5 25 12  5 51.0000000  0  8G10G15G16G18G23G26G27G29
  21632027.352   113677078.636 6  88579542.931 6  21632033.202
  23329057.195   122595035.227 6  95528600.924 6  23329064.335
  21910986.884   115143015.082 5  89721830.829 5  21910989.504
  21414109.060   112531901.761 6  87687196.694 6  21414112.260
  20409277.965   107251482.953 6  83572584.420 6  20409280.475
  21292915.272   111895030.592 6  87190933.579 6  21292922.792
  23481519.048   123396228.127 5  96152906.112 5  23481526.568
  22775647.959   119686840.742 6  93262472.708 6  22775653.549
 22  5 25 12  5 52.0000000  0  8G10G15G16G18G23G26G27G29
  21631579.264   113674725.480 6  88577709.305 6  21631585.324
  23328981.986   122594630.696 6  95528285.713 6  23328987.586
  21910749.386   115141768.387 5  89720859.378 5  21910751.626
  21414398.992   112533425.256 6  87688383.840 6  21414402.192
  20409186.591   107251001.254 6  83572209.071 6  20409189.421
  21293083.285   111895910.479 6  87191619.203 6  21293090.145
  23480959.329   123393282.986 5  96150611.203 5  23480965.289
  22776051.654   119688953.599 6  93264119.078 6  22776055.584
 22  5 25 12  5 53.0000000  0  8G10G15G16G18G23G26G27G29
  21631130.913   113672372.983 6  88575876.199 6  21631137.573
  23328905.452   122594227.022 6  95527971.164 6  23328910.592
  21910512.124   115140522.536 5  89719888.583 5  21910514.854
  21414688.951   112534949.116 6  87689571.263 6  21414692.061
  20409094.747   107250520.413 6  83571834.385 6  20409097.617
  21293250.983   111896791.184 6  87192305.469 6  21293257.563
  23480398.477   123390338.129 5  96148316.520 5  23480405.457
  22776454.059   119691066.971 6  93265765.861 6  22776457.779
 22  5 25 12  5 54.0000000  0  8G10G15G16G18G23G26G27G29
  21630683.880   113670021.357 6  88574043.766 6  21630690.110
  23328827.644   122593824.315 6  95527657.363 6  23328833.984
  21910275.036   115139277.704 5  89718918.586 5  21910277.796
  21414978.716   112536473.500 6  87690759.089 6  21414982.096
  20409003.433   107250040.603 6  83571460.513 6  20409006.603
  21293418.996   111897672.880 6  87192992.502 6  21293425.406
  23479838.129   123387393.681 5  96146022.145 5  23479845.329
  22776855.514   119693181.033 6  93267413.184 6  22776859.974
 22  5 25 12  5 55.0000000  0  8G10G15G16G18G23G26G27G29
  21630236.047   113667670.184 6  88572211.682 6  21630242.837
  23328751.014   122593422.204 6  95527344.032 6  23328757.284
  21910038.776   115138033.497 5  89717949.079 5  21910040.966
  21415269.080   112537998.049 6  87691947.045 6  21415272.400
  20408912.161   107249561.413 6  83571087.121 6  20408915.051
  21293586.301   111898555.167 6  87193679.996 6  21293593.431
  23479277.901   123384449.308 5  96143727.816 5  23479286.021
  22777257.710   119695295.431 6  93269060.757 6  22777262.370
 22  5 25 12  5 56.0000000  0  8G10G15G16G18G23G26G27G29
  21629789.189   113665319.489 6  88570379.977 6  21629795.529
  23328674.630   122593020.700 6  95527031.176 6  23328681.190
  21909802.075   115136789.932 5  89716980.066 5  21909804.575
  21415559.926   112539522.768 6  87693135.134 6  21415562.356
  20408821.435   107249082.887 6  83570714.243 6  20408824.015
  21293754.748   111899438.086 6  87194367.982 6  21293761.478
  23478717.133   123381504.991 5  96141433.557 5  23478725.013
  22777659.243   119697410.125 6  93270708.567 6  22777664.903
 22  5 25 12  5 57.0000000  0  8G10G15G16G18G23G26G27G29
  21629341.976   113662969.187 7  88568548.570 7  21629347.816
  23328598.129   122592619.706 6  95526718.711 6  23328604.189
  21909565.817   115135546.878 5  89716011.448 5  21909567.687
  21415849.727   112541047.524 6  87694323.257 6  21415852.447
  20408730.172   107248604.905 6  83570341.792 6  20408732.912
  21293922.809   111900321.497 7  87195056.350 7  21293929.469
  23478156.366   123378560.621 5  96139139.251 5  23478164.676
  22778061.945   119699525.058 6  93272356.565 6  22778067.585
 22  5 25 12  5 58.0000000  0  8G10G15G16G18G23G26G27G29
  21628894.623   113660619.153 6  88566717.373 6  21628900.833
  23328521.445   122592219.158 6  95526406.591 6  23328528.345
  21909329.560   115134304.295 5  89715043.200 5  21909331.290
  21416139.767   112542572.279 6  87695511.373 6  21416142.657
  20408639.332   107248127.393 6  83569969.703 6  20408642.162
  21294090.990   111901205.326 7  87195745.057 7  21294097.670
  23477597.115   123375616.128 5  96136844.842 5  23477604.715
  22778464.614   119701640.124 6  93274004.664 6  22778469.924
 22  5 25 12  5 59.0000000  0  8G10G15G16G18G23G26G27G29
  21628447.767   113658269.712 7  88564886.640 7  21628453.877
  23328445.534   122591819.333 6  95526095.044 6  23328452.244
  21909092.379   115133062.462 5  89714075.553 5  21909095.889
  21416429.504   112544097.277 6  87696699.684 6  21416432.944
  20408549.043   107247650.624 6  83569598.200 6  20408551.413
  21294259.203   111902089.882 7  87196434.318 7  21294266.093
  23477036.611   123372671.792 5  96134550.568 5  23477044.831
  22778867.784   119703755.596 6  93275653.088 6  22778872.284
 22  5 25 12  6  0.0000000  0  8G10G15G16G18G23G26G27G29
  21628000.930   113655921.141 7  88563056.586 7  21628006.820
  23328370.091   122591420.495 6  95525784.265 6  23328376.231
  21908856.934   115131821.666 5  89713108.692 5  21908859.274
  21416720.090   112545622.853 6  87697888.448 6  21416723.180
  20408458.707   107247174.924 6  83569227.520 6  20408461.097
  21294427.890   111902975.452 7  87197124.373 7  21294434.550
  23476476.071   123369727.942 5  96132256.647 5  23476483.771
  22779269.845   119705871.816 6  93277302.076 6  22779275.005
 22  5 25 12  6  1.0000000  0  8G10G15G16G18G23G26G27G29
  21627553.699   113653573.082 6  88561226.942 6  21627559.879
  23328294.241   122591022.354 6  95525474.015 6  23328300.171
  21908620.563   115130581.561 5  89712142.375 5  21908623.523
  21417011.420   112547148.648 6  87699077.369 6  21417013.240
  20408367.804   107246699.932 6  83568857.403 6  20408370.574
  21294596.263   111903861.684 6  87197814.939 6  21294603.473
  23475917.084   123366784.199 5  96129962.812 5  23475923.864
  22779672.070   119707988.417 6  93278951.362 6  22779677.750
 22  5 25 12  6  2.0000000  0  8G10G15G16G18G23G26G27G29
  21627107.221   113651225.658 6  88559397.778 6  21627113.261
  23328219.257   122590624.936 6  95525164.348 6  23328224.917
  21908384.632   115129342.214 5  89711176.652 5  21908387.702
  21417301.655   112548674.721 6  87700266.529 6  21417303.715
  20408278.001   107246225.701 6  83568487.869 6  20408280.491
  21294765.043   111904748.665 6  87198506.092 6  21294771.973
  23475356.643   123363840.652 5  96127669.164 5  23475364.243
  22780075.996   119710105.446 6  93280601.007 6  22780080.676
 22  5 25 12  6  3.0000000  0  8G10G15G16G18G23G26G27G29
  21626660.641   113648878.500 6  88557568.828 6  21626666.711
  23328144.156   122590227.930 6  95524855.005 6  23328149.176
  21908149.049   115128103.320 5  89710211.284 5  21908151.509
  21417591.458   112550200.765 6  87701455.644 6  21417594.208
  20408187.302   107245751.921 6  83568118.699 6  20408189.882
  21294933.781   111905636.042 6  87199197.552 6  21294940.801
  23474796.238   123360896.938 5  96125375.360 5  23474803.268
  22780478.683   119712222.629 6  93282250.746 6  22780483.493
 22  5 25 12  6  4.0000000  0  8G10G15G16G18G23G26G27G29
  21626214.110   113646531.766 6  88555740.208 6  21626220.230
  23328068.887   122589831.503 6  95524546.092 6  23328073.677
  21907913.196   115126865.012 5  89709246.369 5  21907915.706
  21417881.975   112551726.913 6  87702644.852 6  21417884.485
  20408097.652   107245278.750 6  83567749.988 6  20408100.162
  21295102.873   111906523.988 6  87199889.454 6  21295109.833
  23474235.257   123357953.249 5  96123081.567 5  23474243.167
  22780881.454   119714340.059 6  93283900.693 6  22780886.494
 22  5 25 12  6  5.0000000  0  8G10G15G16G18G23G26G27G29
  21625767.182   113644185.661 6  88553912.078 6  21625773.532
  23327993.216   122589435.830 6  95524237.772 6  23327998.776
  21907677.742   115125627.507 5  89708282.077 5  21907680.402
  21418171.652   112553253.388 6  87703834.309 6  21418175.332
  20408007.310   107244806.392 6  83567381.917 6  20408010.180
  21295272.445   111907412.708 6  87200581.961 6  21295278.905
  23473674.585   123355009.787 5  96120787.982 5  23473683.415
  22781284.504   119716457.981 6  93285551.025 6  22781289.684
 22  5 25 12  6  6.0000000  0  8G10G15G16G18G23G26G27G29
  21625321.151   113641840.387 6  88552084.593 6  21625327.381
  23327917.228   122589041.152 6  95523930.234 6  23327923.638
  21907442.861   115124390.981 5  89707318.547 5  21907445.471
  21418463.299   112554780.360 6  87705024.159 6  21418465.359
  20407918.061   107244335.021 6  83567014.620 6  20407920.501
  21295441.698   111908302.365 6  87201275.198 6  21295448.098
  23473115.403   123352066.680 5  96118494.667 5  23473123.613
  22781687.539   119718576.569 6  93287201.865 6  22781692.899
 22  5 25 12  6  7.0000000  0  8G10G15G16G18G23G26G27G29
  21624875.137   113639495.635 6  88550257.512 6  21624881.147
  23327842.733   122588647.102 6  95523623.188 6  23327848.583
  21907207.053   115123155.122 5  89706355.550 5  21907209.603
  21418754.113   112556307.550 6  87706214.179 6  21418756.393
  20407827.860   107243864.347 6  83566647.857 6  20407830.970
  21295610.982   111909192.687 7  87201968.953 7  21295617.502
  23472556.260   123349123.750 5  96116201.465 5  23472563.330
  22782091.129   119720695.538 6  93288853.002 6  22782096.099
 22  5 25 12  6  8.0000000  0  8G10G15G16G18G23G26G27G29
  21624428.827   113637151.217 6  88548430.695 6  21624435.037
  23327767.287   122588253.526 6  95523316.503 6  23327773.457
  21906972.337   115121919.769 5  89705392.940 5  21906974.927
  21419043.461   112557834.752 6  87707404.202 6  21419046.691
  20407738.516   107243394.197 6  83566281.516 6  20407741.876
  21295780.731   111910083.482 7  87202663.080 7  21295787.241
  23471995.397   123346180.710 5  96113908.188 5  23472003.447
  22782494.074   119722814.692 6  93290504.285 6  22782499.224
 22  5 25 12  6  9.0000000  0  8G10G15G16G18G23G26G27G29
  21623982.865   113634806.806 7  88546603.886 7  21623988.825
  23327693.025   122587860.114 6  95523009.952 6  23327698.855
  21906736.736   115120684.601 5  89704430.468 5  21906740.306
  21419334.017   112559361.662 6  87708593.999 6  21419337.337
  20407649.711   107242924.216 6  83565915.291 6  20407651.951
  21295949.925   111910974.414 7  87203357.310 7  21295956.585
  23471435.711   123343237.277 5  96111614.611 5  23471443.031
  22782898.245   119724933.688 6  93292155.448 6  22782902.495
 22  5 25 12  6 10.0000000  0  8G10G15G16G18G23G26G27G29
  21623536.717   113632462.975 7  88544777.526 7  21623543.027
  23327617.927   122587467.397 6  95522703.935 6  23327623.827
  21906501.941   115119450.169 5  89703468.583 5  21906505.361
  21419624.911   112560888.841 6  87709784.007 6  21419627.881
  20407560.292   107242455.002 6  83565549.670 6  20407563.022
  21296119.700   111911866.073 7  87204052.099 7  21296126.400
  23470875.309   123340293.982 5  96109321.134 5  23470882.769
  22783301.520   119727053.117 6  93293806.945 6  22783305.860
 22  5 25 12  6 11.0000000  0  8G10G15G16G18G23G26G27G29
  21623090.998   113630120.104 7  88542951.921 7  21623097.328
  23327544.310   122587075.801 6  95522398.804 6  23327549.180
  21906267.875   115118216.860 5  89702507.557 5  21906270.835
  21419915.299   112562416.644 6  87710974.503 6  21419918.509
  20407470.918   107241986.907 6  83565184.918 6  20407473.548
  21296289.754   111912758.814 7  87204747.748 7  21296296.134
  23470316.013   123337351.254 5  96107028.113 5  23470322.433
  22783704.615   119729173.344 6  93295459.070 6  22783709.155
 22  5 25 12  6 12.0000000  0  8G10G15G16G18G23G26G27G29
  21622645.332   113627777.896 7  88541126.820 7  21622651.642
  23327468.634   122586684.990 6  95522094.282 6  23327474.734
  21906033.614   115116984.376 5  89701547.177 5  21906035.824
  21420206.964   112563944.806 6  87712165.277 6  21420209.694
  20407382.935   107241519.656 6  83564820.824 6  20407384.895
  21296459.485   111913652.347 7  87205444.009 7  21296466.325
  23469754.970   123334408.764 5  96104735.259 5  23469763.110
  22784108.252   119731294.079 6  93297111.589 6  22784112.822
 22  5 25 12  6 13.0000000  0  8G10G15G16G18G23G26G27G29
  21622199.502   113625435.923 6  88539301.904 6  21622205.652
  23327394.171   122586294.551 6  95521790.047 6  23327400.771
  21905798.700   115115752.300 5  89700587.119 5  21905801.460
  21420497.637   112565472.891 6  87713355.988 6  21420500.507
  20407292.970   107241052.826 6  83564457.060 6  20407296.020
  21296629.410   111914546.275 7  87206140.568 7  21296636.520
  23469194.682   123331466.102 5  96102442.280 5  23469203.012
  22784512.099   119733414.919 6  93298764.187 6  22784516.579
 22  5 25 12  6 14.0000000  0  8G10G15G16G18G23G26G27G29
  21621753.764   113623094.464 6  88537477.398 6  21621760.104
  23327320.209   122585904.792 5  95521486.335 5  23327326.039
  21905563.885   115114520.922 5  89699627.605 5  21905566.725
  21420788.373   112567001.194 6  87714546.879 6  21420791.493
  20407204.699   107240586.686 6  83564093.838 6  20407207.189
  21296799.749   111915440.843 6  87206837.644 6  21296806.649
  23468635.164   123328523.552 5  96100149.387 5  23468642.954
  22784914.937   119735536.118 6  93300417.071 6  22784920.387
 22  5 25 12  6 15.0000000  0  8G10G15G16G18G23G26G27G29
  21621308.315   113620753.590 6  88535653.342 6  21621314.465
  23327246.050   122585515.718 6  95521183.158 6  23327252.100
  21905329.603   115113290.245 5  89698668.634 5  21905332.443
  21421078.827   112568529.728 6  87715737.944 6  21421082.017
  20407116.875   107240121.278 6  83563731.187 6  20407118.485
  21296970.010   111916336.119 6  87207535.258 6  21296977.020
  23468074.810   123325581.139 5  96097856.599 5  23468082.330
  22785319.105   119737657.724 6  93302070.259 6  22785323.995
 22  5 25 12  6 16.0000000  0  8G10G15G16G18G23G26G27G29
  21620862.823   113618412.761 6  88533829.326 6  21620869.183
  23327172.313   122585126.835 6  95520880.138 6  23327178.253
  21905095.495   115112059.793 5  89697709.851 5  21905098.625
  21421370.090   112570058.015 6  87716928.813 6  21421373.000
  20407027.591   107239656.094 6  83563368.708 6  20407030.081
  21297140.619   111917231.571 7  87208233.011 7  21297147.279
  23467516.291   123322638.383 5  96095563.549 5  23467522.531
  22785723.177   119739779.221 6  93303723.370 6  22785727.937
 22  5 25 12  6 17.0000000  0  8G10G15G16G18G23G26G27G29
  21620417.323   113616072.706 6  88532005.906 6  21620423.933
  23327098.893   122584738.845 6  95520577.814 6  23327104.213
  21904861.708   115110830.286 5  89696751.793 5  21904864.218
  21421660.958   112571586.768 6  87718120.049 6  21421663.968
  20406938.972   107239191.864 6  83563006.972 6  20406941.682
  21297311.135   111918127.934 6  87208931.475 6  21297317.995
  23466955.544   123319695.966 5  96093270.759 5  23466963.104
  22786126.662   119741901.351 6  93305376.971 6  22786131.522
 22  5 25 12  6 18.0000000  0  8G10G15G16G18G23G26G27G29
  21619972.649   113613733.349 6  88530183.039 6  21619978.859
  23327025.747   122584351.713 6  95520276.154 6  23327030.527
  21904627.654   115109601.648 5  89695794.411 5  21904631.434
  21421952.248   112573115.877 6  87719311.565 6  21421954.968
  20406851.172   107238728.505 6  83562645.916 6  20406853.702
  21297482.170   111919025.129 6  87209630.584 6  21297488.750
  23466396.161   123316753.832 5  96090978.194 5  23466402.701
  22786531.103   119744024.019 6  93307031.001 6  22786535.753
 22  5 25 12  6 19.0000000  0  8G10G15G16G18G23G26G27G29
  21619527.482   113611394.343 7  88528360.435 7  21619533.452
  23326952.004   122583965.064 6  95519974.866 6  23326956.784
  21904393.933   115108373.506 5  89694837.416 5  21904397.203
  21422242.906   112574645.035 6  87720503.114 6  21422245.786
  20406762.808   107238265.679 6  83562285.271 6  20406765.278
  21297652.500   111919922.789 6  87210330.065 6  21297659.590
  23465836.344   123313811.669 5  96088685.599 5  23465843.204
  22786934.216   119746146.881 6  93308685.171 6  22786939.166
 22  5 25 12  6 20.0000000  0  8G10G15G16G18G23G26G27G29
  21619082.377   113609055.953 7  88526538.315 7  21619088.547
  23326878.198   122583579.174 6  95519674.179 6  23326883.698
  21904160.277   115107146.171 5  89693881.040 5  21904163.357
  21422534.433   112576174.490 6  87721694.895 6  21422536.773
  20406675.416   107237803.624 6  83561925.226 6  20406677.426
  21297823.127   111920821.234 6  87211030.153 6  21297830.497
  23465277.321   123310869.655 5  96086393.132 5  23465283.241
  22787337.652   119748270.202 6  93310339.699 6  22787343.292
 22  5 25 12  6 21.0000000  0  8G10G15G16G18G23G26G27G29
  21618637.979   113606717.722 7  88524716.322 7  21618643.919
  23326804.872   122583193.573 6  95519373.711 6  23326809.712
  21903926.796   115105919.137 5  89692924.912 5  21903929.906
  21422825.220   112577703.798 6  87722886.569 6  21422827.730
  20406586.926   107237341.914 6  83561565.454 6  20406589.616
  21297994.051   111921719.966 7  87211730.455 7  21298001.681
  23464715.740   123307927.400 5  96084100.479 5  23464724.070
  22787741.830   119750393.530 6  93311994.240 6  22787747.290
 22  5 25 12  6 22.0000000  0  8G10G15G16G18G23G26G27G29
  21618192.623   113604380.178 7  88522894.863 7  21618198.703
  23326731.971   122582808.787 6  95519073.884 6  23326737.061
  21903693.653   115104692.960 5  89691969.449 5  21903695.693
  21423116.342   112579233.465 6  87724078.514 6  21423118.762
  20406499.012   107236881.060 6  83561206.351 6  20406502.092
  21298164.989   111922619.505 7  87212431.386 7  21298172.779
  23464156.507   123304985.447 5  96081808.038 5  23464163.887
  22788146.211   119752517.393 6  93313649.191 6  22788151.471
 22  5 25 12  6 23.0000000  0  8G10G15G16G18G23G26G27G29
  21617748.108   113602043.130 7  88521073.789 7  21617754.118
  23326657.563   122582424.657 6  95518774.563 6  23326664.193
  21903461.020   115103467.433 5  89691014.501 5  21903463.680
  21423407.222   112580763.320 6  87725270.602 6  21423410.132
  20406411.202   107236420.880 6  83560847.767 6  20406414.422
  21298337.256   111923519.680 6  87213132.825 6  21298343.856
  23463596.096   123302043.559 5  96079515.657 5  23463604.276
  22788550.247   119754641.590 6  93315304.405 6  22788555.997
 22  5 25 12  6 24.0000000  0  8G10G15G16G18G23G26G27G29
  21617303.405   113599707.048 7  88519253.472 7  21617309.585
  23326584.962   122582041.616 6  95518476.094 6  23326591.412
  21903227.953   115102243.034 5  89690060.429 5  21903230.233
  21423698.194   112582293.817 6  87726463.197 6  21423701.504
  20406324.197   107235961.848 6  83560490.073 6  20406326.967
  21298508.944   111924420.940 6  87213835.104 6  21298515.504
  23463036.609   123299102.225 5  96077223.713 5  23463044.689
  22788955.075   119756766.605 6  93316960.261 6  22788960.325
 22  5 25 12  6 25.0000000  0  8G10G15G16G18G23G26G27G29
  21616858.891   113597371.725 7  88517433.740 7  21616865.351
  23326512.215   122581659.503 6  95518178.344 6  23326518.645
  21902995.779   115101019.567 5  89689107.068 5  21902996.669
  21423989.251   112583824.765 6  87727656.143 6  21423992.651
  20406237.365   107235503.747 6  83560133.116 6  20406239.585
  21298680.413   111925323.100 6  87214538.086 6  21298687.293
  23462476.683   123296161.246 5  96074932.063 5  23462485.263
  22789359.723   119758892.249 6  93318616.604 6  22789364.963
 22  5 25 12  6 26.0000000  0  8G10G15G16G18G23G26G27G29
  21616414.380   113595036.778 6  88515614.304 6  21616421.030
  23326439.551   122581277.834 6  95517880.938 6  23326445.661
  21902762.834   115099796.627 5  89688154.135 5  21902764.884
  21424281.099   112585355.776 6  87728849.131 6  21424283.659
  20406150.272   107235046.172 6  83559776.561 6  20406152.792
  21298852.329   111926225.764 6  87215241.463 6  21298859.179
  23461916.566   123293220.187 5  96072640.328 5  23461925.836
  22789763.084   119761018.065 6  93320273.079 6  22789769.334
 22  5 25 12  6 27.0000000  0  8G10G15G16G18G23G26G27G29
  21615970.660   113592702.487 7  88513795.376 7  21615976.960
  23326367.427   122580896.995 6  95517584.180 6  23326373.197
  21902529.988   115098574.500 5  89687201.837 5  21902532.208
  21424572.287   112586887.114 6  87730042.383 6  21424575.397
  20406063.006   107234589.432 6  83559420.659 6  20406065.776
  21299023.631   111927129.223 6  87215945.458 6  21299030.771
  23461357.900   123290279.365 5  96070348.782 5  23461365.840
  22790168.473   119763144.406 6  93321929.966 6  22790173.723
 22  5 25 12  6 28.0000000  0  8G10G15G16G18G23G26G27G29
  21615526.640   113590368.817 7  88511976.931 7  21615532.590
  23326295.660   122580516.931 6  95517288.024 6  23326300.940
  21902297.073   115097353.198 5  89686250.159 5  21902299.893
  21424864.027   112588418.781 6  87731235.881 6  21424866.957
  20405976.476   107234133.510 6  83559065.396 6  20405978.866
  21299196.479   111928033.443 6  87216650.040 6  21299202.769
  23460798.583   123287338.790 5  96068057.433 5  23460806.623
  22790572.395   119765271.228 6  93323587.228 6  22790578.595
 22  5 25 12  6 29.0000000  0  8G10G15G16G18G23G26G27G29
  21615082.890   113588035.588 7  88510158.831 7  21615088.910
  23326223.784   122580137.419 6  95516992.305 6  23326228.264
  21902064.728   115096132.438 5  89685298.930 5  21902067.638
  21425155.533   112589950.539 6  87732429.465 6  21425158.303
  20405889.630   107233678.174 6  83558710.604 6  20405892.520
  21299368.440   111928938.225 6  87217355.065 6  21299375.080
  23460238.196   123284398.241 5  96065766.095 5  23460247.066
  22790977.744   119767398.340 6  93325244.709 6  22790983.504
 22  5 25 12  6 30.0000000  0  8G10G15G16G18G23G26G27G29
  21614638.853   113585703.191 7  88508341.383 7  21614645.023
  23326151.528   122579758.859 6  95516697.329 6  23326156.798
  21901832.692   115094912.702 5  89684348.480 5  21901835.842
  21425447.825   112591482.818 6  87733623.448 6  21425450.315
  20405803.142   107233223.848 6  83558356.582 6  20405806.112
  21299540.407   111929843.965 6  87218060.832 6  21299547.427
  23459678.478   123281458.079 5  96063475.077 5  23459688.138
  22791382.797   119769526.094 6  93326902.696 6  22791388.507
 22  5 25 12  6 31.0000000  0  8G10G15G16G18G23G26G27G29
  21614194.560   113583370.886 6  88506523.997 6  21614201.410
  23326079.173   122579380.558 6  95516402.543 6  23326084.813
  21901600.694   115093693.209 5  89683398.228 5  21901603.324
  21425739.442   112593014.880 6  87734817.260 6  21425741.372
  20405717.297   107232769.774 6  83558002.759 6  20405719.867
  21299712.737   111930749.924 6  87218766.769 6  21299719.717
  23459118.216   123278517.595 5  96061183.779 5  23459128.096
  22791787.739   119771653.808 6  93328560.659 6  22791792.749
 22  5 25 12  6 32.0000000  0  8G10G15G16G18G23G26G27G29
  21613751.036   113581039.108 7  88504707.026 7  21613757.756
  23326007.103   122579002.906 6  95516108.277 6  23326013.023
  21901368.772   115092474.441 6  89682448.544 6  21901371.662
  21426030.625   112594547.159 6  87736011.244 6  21426032.885
  20405631.196   107232316.440 6  83557649.502 6  20405633.356
  21299885.402   111931656.567 6  87219473.244 6  21299892.262
  23458560.219   123275577.244 5  96058892.620 5  23458568.549
  22792193.151   119773781.897 6  93330218.904 6  22792198.031
 22  5 25 12  6 33.0000000  0  8G10G15G16G18G23G26G27G29
  21613307.669   113578707.811 7  88502890.441 7  21613313.989
  23325936.061   122578625.895 6  95515814.500 6  23325941.471
  21901137.347   115091256.299 5  89681499.331 5  21901140.427
  21426321.981   112596079.602 6  87737205.352 6  21426324.751
  20405544.916   107231863.752 6  83557296.763 6  20405547.166
  21300058.011   111932563.806 6  87220180.189 6  21300065.041
  23458000.758   123272636.957 5  96056601.494 5  23458008.348
  22792598.171   119775910.332 6  93331877.422 6  22792603.201
 22  5 25 12  6 34.0000000  0  8G10G15G16G18G23G26G27G29
  21612864.303   113576377.057 7  88501074.269 7  21612870.493
  23325863.940   122578249.531 6  95515521.230 6  23325869.430
  21900905.578   115090038.856 6  89680550.683 6  21900908.158
  21426613.982   112597612.267 6  87738399.640 6  21426616.582
  20405458.621   107231411.755 6  83556944.557 6  20405461.401
  21300230.217   111933471.730 7  87220887.659 7  21300237.937
  23457441.360   123269696.793 5  96054310.447 5  23457448.860
  22793002.962   119778039.131 6  93333536.217 6  22793008.282
 22  5 25 12  6 35.0000000  0  8G10G15G16G18G23G26G27G29
  21612420.829   113574046.902 7  88499258.576 7  21612426.719
  23325793.045   122577873.928 6  95515228.554 6  23325798.035
  21900673.691   115088822.173 5  89679602.618 5  21900676.031
  21426905.398   112599145.220 6  87739594.149 6  21426908.338
  20405372.907   107230960.550 6  83556592.969 6  20405375.187
  21300403.950   111934380.374 7  87221595.689 7  21300410.980
  23456881.345   123266756.802 5  96052019.547 5  23456889.525
  22793408.399   119780168.373 6  93335195.366 6  22793413.429
 22  5 25 12  6 36.0000000  0  8G10G15G16G18G23G26G27G29
  21611977.101   113571717.103 7  88497443.144 7  21611983.151
  23325722.136   122577498.808 6  95514936.256 6  23325726.526
  21900442.047   115087605.990 5  89678654.948 5  21900445.317
  21427197.387   112600678.202 6  87740788.674 6  21427199.917
  20405287.308   107230509.864 6  83556241.781 6  20405289.508
  21300577.452   111935289.507 6  87222304.104 6  21300583.852
  23456322.091   123263816.755 5  96049728.605 5  23456329.171
  22793814.360   119782297.807 6  93336854.664 6  22793818.460
 22  5 25 12  6 37.0000000  0  8G10G15G16G18G23G26G27G29
  21611534.160   113569388.001 6  88495628.259 6  21611540.070
  23325650.095   122577124.518 6  95514644.609 6  23325655.835
  21900210.554   115086390.698 5  89677707.971 5  21900214.034
  21427489.223   112602211.555 6  87741983.494 6  21427491.483
  20405201.966   107230060.029 6  83555891.264 6  20405203.886
  21300749.875   111936199.460 6  87223013.161 6  21300757.065
  23455762.229   123260876.968 5  96047437.880 5  23455769.639
  22794219.730   119784427.803 6  93338514.396 6  22794223.980
 22  5 25 12  6 38.0000000  0  8G10G15G16G18G23G26G27G29
  21611091.172   113567059.599 6  88493813.917 6  21611097.042
  23325578.847   122576751.090 6  95514353.621 6  23325584.737
  21899979.600   115085176.272 5  89676761.657 5  21899982.700
  21427780.876   112603745.309 6  87743178.629 6  21427783.336
  20405115.586   107229611.097 6  83555541.451 6  20405118.646
  21300923.604   111937110.262 6  87223722.864 6  21300930.454
  23455203.583   123257937.522 5  96045147.385 5  23455211.873
  22794624.651   119786558.332 6  93340174.537 6  22794629.351
 22  5 25 12  6 39.0000000  0  8G10G15G16G18G23G26G27G29
  21610648.648   113564732.237 7  88492000.398 7  21610654.318
  23325507.679   122576378.828 6  95514063.547 6  23325514.359
  21899749.143   115083963.051 5  89675816.292 5  21899752.193
  21428072.805   112605279.799 6  87744374.330 6  21428075.595
  20405030.883   107229163.368 6  83555192.569 6  20405033.153
  21301096.819   111938022.237 6  87224433.496 6  21301103.729
  23454644.420   123254998.669 5  96042857.377 5  23454652.160
  22795030.354   119788689.739 6  93341835.374 6  22795035.184
 22  5 25 12  6 40.0000000  0  8G10G15G16G18G23G26G27G29
  21610205.792   113562405.316 7  88490187.220 7  21610211.772
  23325438.325   122576007.127 6  95513773.916 6  23325443.445
  21899518.660   115082750.397 5  89674871.366 5  21899520.740
  21428364.698   112606814.372 6  87745570.094 6  21428367.468
  20404945.229   107228716.228 6  83554844.145 6  20404948.399
  21301270.057   111938934.763 6  87225144.554 6  21301277.487
  23454085.019   123252059.842 5  96040567.379 5  23454092.899
  22795435.865   119790821.423 6  93343496.432 6  22795440.305
 22  5 25 12  6 41.0000000  0  8G10G15G16G18G23G26G27G29
  21609762.863   113560078.810 6  88488374.364 6  21609769.073
  23325366.900   122575636.003 6  95513484.732 6  23325372.990
  21899287.948   115081538.354 5  89673926.920 5  21899289.758
  21428656.786   112608349.077 6  87746765.970 6  21428659.796
  20404859.908   107228269.716 6  83554496.217 6  20404863.098
  21301444.563   111939847.848 6  87225856.046 6  21301451.273
  23453525.714   123249121.008 5  96038277.397 5  23453533.624
  22795841.856   119792953.392 6  93345157.686 6  22795846.306
 22  5 25 12  6 42.0000000  0  8G10G15G16G18G23G26G27G29
  21609319.956   113557752.839 6  88486561.916 6  21609326.456
  23325295.246   122575265.523 6  95513196.052 6  23325302.426
  21899057.279   115080326.989 5  89672982.994 5  21899059.869
  21428949.164   112609883.980 6  87747962.002 6  21428951.574
  20404775.535   107227823.884 6  83554148.812 6  20404778.315
  21301618.269   111940761.609 6  87226568.065 6  21301625.049
  23452966.019   123246182.274 5  96035987.471 5  23452973.709
  22796247.547   119795085.734 6  93346819.252 6  22796251.897
 22  5 25 12  6 43.0000000  0  8G10G15G16G18G23G26G27G29
  21608877.369   113555427.406 7  88484749.896 7  21608883.629
  23325225.556   122574895.735 6  95512907.902 6  23325231.796
  21898827.251   115079116.331 6  89672039.628 6  21898829.411
  21429240.889   112611419.119 6  87749158.206 6  21429243.679
  20404691.236   107227378.779 6  83553801.978 6  20404693.516
  21301791.594   111941676.014 6  87227280.581 6  21301798.854
  23452407.200   123243243.689 5  96033697.676 5  23452415.170
  22796652.999   119797218.441 6  93348481.099 6  22796657.869
 22  5 25 12  6 44.0000000  0  8G10G15G16G18G23G26G27G29
  21608435.080   113553102.595 7  88482938.355 7  21608441.170
  23325155.216   122574526.703 6  95512620.345 6  23325161.376
  21898596.888   115077906.462 6  89671096.871 6  21898599.138
  21429533.205   112612954.537 6  87750354.644 6  21429535.955
  20404606.344   107226934.461 6  83553455.757 6  20404609.294
  21301966.343   111942591.186 7  87227993.712 7  21301973.243
  23451849.038   123240305.332 5  96031408.048 5  23451856.008
  22797058.084   119799351.644 6  93350143.330 6  22797063.734
 22  5 25 12  6 45.0000000  0  8G10G15G16G18G23G26G27G29
  21607992.868   113550778.329 7  88481127.243 7  21607998.958
  23325084.540   122574158.335 6  95512333.309 6  23325091.310
  21898366.818   115076697.304 6  89670154.671 6  21898369.198
  21429825.278   112614490.182 6  87751551.252 6  21429828.208
  20404522.036   107226490.845 6  83553110.089 6  20404524.846
  21302140.096   111943507.032 7  87228707.351 7  21302147.396
  23451289.283   123237367.072 5  96029118.494 5  23451296.983
  22797465.166   119801485.199 6  93351805.835 6  22797469.496
 22  5 25 12  6 46.0000000  0  8G10G15G16G18G23G26G27G29
  21607550.779   113548454.940 7  88479316.807 7  21607556.579
  23325014.431   122573791.022 6  95512047.086 6  23325021.451
  21898137.393   115075489.185 6  89669213.276 6  21898139.423
  21430118.013   112616026.418 6  87752748.312 6  21430120.293
  20404437.795   107226048.298 6  83552765.245 6  20404440.755
  21302315.142   111944423.885 7  87229421.788 7  21302321.772
  23450730.416   123234429.295 5  96026829.332 5  23450738.156
  22797870.738   119803619.522 6  93353468.939 6  22797875.618
 22  5 25 12  6 47.0000000  0  8G10G15G16G18G23G26G27G29
  21607108.834   113546132.189 7  88477506.877 7  21607114.664
  23324945.712   122573424.471 6  95511761.460 6  23324951.242
  21897907.098   115074281.879 6  89668272.527 6  21897909.288
  21430410.281   112617562.955 6  87753945.611 6  21430412.741
  20404354.257   107225606.564 6  83552421.033 6  20404356.247
  21302489.262   111945341.522 7  87230136.817 7  21302496.522
  23450170.515   123231491.749 5  96024540.332 5  23450178.755
  22798277.403   119805754.321 6  93355132.411 6  22798282.023
 22  5 25 12  6 48.0000000  0  8G10G15G16G18G23G26G27G29
  21606667.243   113543810.184 7  88475697.522 7  21606672.723
  23324875.537   122573058.783 6  95511476.512 6  23324882.107
  21897677.691   115073075.465 5  89667332.463 5  21897680.071
  21430702.428   112619099.918 6  87755143.245 6  21430705.588
  20404269.539   107225165.737 6  83552077.536 6  20404272.809
  21302664.154   111946260.015 7  87230852.522 7  21302671.294
  23449612.244   123228554.495 5  96022251.567 5  23449619.384
  22798683.334   119807889.686 6  93356796.331 6  22798688.334
 22  5 25 12  6 49.0000000  0  8G10G15G16G18G23G26G27G29
  21606224.662   113541488.402 7  88473888.342 7  21606231.092
  23324805.766   122572693.478 6  95511191.862 6  23324812.626
  21897447.993   115071869.448 5  89666392.711 5  21897450.353
  21430995.158   112620636.793 6  87756340.808 6  21430998.108
  20404186.386   107224725.310 6  83551734.341 6  20404188.796
  21302839.404   111947178.845 6  87231568.500 6  21302846.024
  23449053.005   123225617.087 5  96019962.665 5  23449060.435
  22799090.101   119810025.131 6  93358460.313 6  22799094.681
 22  5 25 12  6 50.0000000  0  8G10G15G16G18G23G26G27G29
  21605783.032   113539167.428 6  88472079.795 6  21605789.322
  23324737.224   122572329.094 5  95510907.938 5  23324743.294
  21897218.769   115070664.385 5  89665453.707 5  21897221.479
  21431287.860   112622174.151 6  87757538.747 6  21431290.570
  20404103.100   107224285.860 6  83551391.918 6  20404105.000
  21303013.925   111948098.627 6  87232285.219 6  21303020.815
  23448493.943   123222680.043 5  96017674.077 5  23448501.683
  22799497.121   119812161.199 6  93360124.783 6  22799501.321
 22  5 25 12  6 51.0000000  0  8G10G15G16G18G23G26G27G29
  21605341.680   113536846.968 7  88470271.644 7  21605347.680
  23324667.751   122571965.401 6  95510624.538 6  23324673.851
  21896989.305   115069460.021 5  89664515.247 5  21896992.235
  21431580.260   112623711.715 6  87758736.854 6  21431583.220
  20404019.272   107223847.102 6  83551050.025 6  20404021.562
  21303189.304   111949019.073 6  87233002.437 6  21303195.984
  23447934.956   123219743.122 5  96015385.565 5  23447943.076
  22799902.530   119814297.650 6  93361789.540 6  22799908.050
 22  5 25 12  6 52.0000000  0  8G10G15G16G18G23G26G27G29
  21604900.011   113534527.273 7  88468464.095 7  21604906.241
  23324598.714   122571602.583 6  95510341.822 6  23324604.744
  21896760.668   115068256.584 6  89663577.498 6  21896763.618
  21431873.106   112625249.720 6  87759935.294 6  21431875.856
  20403936.020   107223409.261 6  83550708.855 6  20403938.180
  21303364.856   111949940.416 6  87233720.369 6  21303371.546
  23447377.267   123216806.527 5  96013097.326 5  23447383.517
  22800309.585   119816434.704 6  93363454.771 6  22800314.405
 22  5 25 12  6 53.0000000  0  8G10G15G16G18G23G26G27G29
  21604458.665   113532207.960 7  88466656.840 7  21604464.815
  23324529.351   122571240.272 6  95510059.502 6  23324535.721
  21896531.612   115067053.679 6  89662640.177 6  21896534.702
  21432165.380   112626787.773 6  87761133.774 6  21432168.720
  20403852.702   107222971.979 6  83550368.120 6  20403855.162
  21303540.196   111950862.248 6  87234438.678 6  21303546.956
  23446817.441   123213869.920 5  96010809.052 5  23446825.541
  22800715.558   119818571.970 6  93365120.172 6  22800721.188
 22  5 25 12  6 54.0000000  0  8G10G15G16G18G23G26G27G29
  21604017.992   113529889.096 6  88464849.940 6  21604023.862
  23324461.116   122570878.564 6  95509777.663 6  23324466.996
  21896302.252   115065851.391 5  89661703.327 5  21896305.372
  21432458.229   112628325.997 6  87762332.383 6  21432461.249
  20403769.659   107222535.336 6  83550027.874 6  20403772.099
  21303715.970   111951784.661 6  87235157.440 6  21303722.390
  23446259.728   123210933.345 5  96008520.822 5  23446267.288
  22801122.913   119820709.549 6  93366785.820 6  22801127.943
 22  5 25 12  6 55.0000000  0  8G10G15G16G18G23G26G27G29
  21603576.736   113527571.084 7  88463043.696 7  21603582.586
  23324392.178   122570517.828 6  95509496.567 6  23324398.658
  21896073.981   115064650.117 5  89660767.265 5  21896076.741
  21432751.105   112629864.706 6  87763531.383 6  21432754.605
  20403686.970   107222099.687 6  83549688.403 6  20403689.210
  21303891.853   111952708.053 7  87235876.961 7  21303898.103
  23445700.861   123207997.165 5  96006232.904 5  23445708.361
  22801529.447   119822847.793 6  93368451.979 6  22801534.887
 22  5 25 12  6 56.0000000  0  8G10G15G16G18G23G26G27G29
  21603135.600   113525253.517 7  88461237.804 7  21603141.610
  23324323.532   122570157.668 6  95509215.927 6  23324329.942
  21895845.411   115063449.443 5  89659831.667 5  21895848.171
  21433043.927   112631403.570 6  87764730.496 6  21433046.977
  20403603.994   107221664.696 6  83549349.444 6  20403606.204
  21304067.204   111953632.036 7  87236596.949 7  21304073.754
  23445141.436   123205061.066 5  96003945.027 5  23445149.206
  22801936.136   119824986.372 6  93370118.391 6  22801942.026
 22  5 25 12  6 57.0000000  0  8G10G15G16G18G23G26G27G29
  21602694.618   113522936.475 7  88459432.318 7  21602700.648
  23324255.647   122569798.219 6  95508935.836 6  23324261.797
  21895617.227   115062249.451 5  89658896.617 5  21895619.647
  21433336.561   112632942.636 6  87765929.761 6  21433339.851
  20403521.149   107221230.376 6  83549011.023 6  20403523.879
  21304243.164   111954556.656 7  87237317.432 7  21304250.004
  23444582.704   123202125.033 5  96001657.221 5  23444589.984
  22802344.348   119827125.285 6  93371785.076 6  22802349.028
 22  5 25 12  6 58.0000000  0  8G10G15G16G18G23G26G27G29
  21602253.542   113520620.005 7  88457627.275 7  21602259.922
  23324187.399   122569439.448 6  95508656.263 6  23324193.659
  21895388.764   115061050.189 5  89657962.130 5  21895391.034
  21433629.434   112634481.937 6  87767129.219 6  21433632.604
  20403438.973   107220796.788 6  83548673.163 6  20403441.423
  21304419.146   111955481.976 7  87238038.458 7  21304426.076
  23444023.318   123199189.184 5  95999369.548 5  23444031.878
  22802751.608   119829264.614 6  93373452.089 6  22802755.908
 22  5 25 12  6 59.0000000  0  8G10G15G16G18G23G26G27G29
  21601812.973   113518303.887 7  88455822.514 7  21601819.043
  23324118.579   122569081.143 6  95508377.068 6  23324125.059
  21895160.637   115059851.447 5  89657028.060 5  21895163.197
  21433922.436   112636021.278 6  87768328.700 6  21433925.936
  20403355.814   107220363.725 6  83548335.707 6  20403358.794
  21304595.543   111956407.770 7  87238759.859 7  21304602.093
  23443465.495   123196253.247 5  95997081.822 5  23443473.385
  22803158.537   119831404.158 6  93375119.257 6  22803163.357
 22  5 25 12  7  0.0000000  0  8G10G15G16G18G23G26G27G29
  21601372.758   113515988.750 7  88454018.505 7  21601378.268
  23324050.733   122568723.988 6  95508098.771 6  23324057.253
  21894932.441   115058653.866 5  89656094.876 5  21894935.301
  21434216.101   112637561.284 6  87769528.706 6  21434218.801
  20403273.832   107219931.829 6  83547999.171 6  20403276.552
  21304771.318   111957334.711 7  87239482.144 7  21304778.548
  23442907.323   123193317.903 5  95994794.548 5  23442913.823
  22803566.096   119833544.504 6  93376787.059 6  22803570.476
 22  5 25 12  7  1.0000000  0  8G10G15G16G18G23G26G27G29
  21600932.246   113513674.138 7  88452214.913 7  21600938.056
  23323982.734   122568367.443 6  95507820.950 6  23323989.434
  21894705.321   115057456.955 5  89655162.224 5  21894707.901
  21434508.575   112639101.487 6  87770728.860 6  21434511.705
  20403192.046   107219500.622 6  83547663.164 6  20403194.396
  21304948.696   111958262.269 7  87240204.920 7  21304955.156
  23442348.684   123190382.645 5  95992507.327 5  23442356.404
  22803973.307   119835685.231 6  93378455.149 6  22803978.137
 22  5 25 12  7  2.0000000  0  8G10G15G16G18G23G26G27G29
  21600491.641   113511360.181 6  88450411.833 6  21600497.771
  23323914.765   122568011.727 6  95507543.773 6  23323921.605
  21894478.033   115056260.878 5  89654230.197 5  21894479.953
  21434802.057   112640642.042 6  87771929.291 6  21434805.187
  20403109.906   107219070.229 6  83547327.796 6  20403112.306
  21305125.082   111959190.622 6  87240928.309 6  21305131.742
  23441790.302   123187447.642 5  95990220.328 5  23441797.622
  22804380.491   119837826.439 6  93380123.621 6  22804385.361
 22  5 25 12  7  3.0000000  0  8G10G15G16G18G23G26G27G29
  21600051.468   113509046.423 6  88448608.908 6  21600057.338
  23323847.123   122567656.342 6  95507266.859 6  23323854.043
  21894250.626   115055065.160 5  89653298.468 5  21894252.246
  21435095.221   112642182.465 6  87773129.626 6  21435098.021
  20403028.054   107218640.231 6  83546992.729 6  20403030.614
  21305300.979   111960119.295 6  87241651.950 6  21305308.679
  23441230.923   123184512.436 5  95987933.140 5  23441238.923
  22804788.212   119839967.708 6  93381792.138 6  22804792.602
 22  5 25 12  7  4.0000000  0  8G10G15G16G18G23G26G27G29
  21599611.582   113506733.377 7  88446806.537 7  21599617.062
  23323781.318   122567301.803 6  95506990.587 6  23323786.828
  21894022.969   115053870.296 5  89652367.414 5  21894025.739
  21435388.194   112643723.276 6  87774330.261 6  21435391.174
  20402946.513   107218211.092 6  83546658.335 6  20402949.183
  21305478.393   111961048.813 7  87242376.248 7  21305485.243
  23440671.977   123181577.498 5  95985646.192 5  23440679.847
  22805195.875   119842109.531 6  93383461.087 6  22805200.655
 22  5 25 12  7  5.0000000  0  8G10G15G16G18G23G26G27G29
  21599171.415   113504421.191 7  88445004.836 7  21599177.265
  23323714.120   122566948.287 6  95506715.119 6  23323719.490
  21893796.254   115052676.467 5  89651437.164 5  21893798.024
  21435681.537   112645264.640 6  87775531.315 6  21435684.527
  20402864.520   107217782.993 6  83546324.757 6  20402867.750
  21305655.226   111961979.328 6  87243101.324 6  21305662.406
  23440113.389   123178643.017 5  95983359.577 5  23440121.479
  22805602.793   119844252.043 6  93385130.583 6  22805608.073
 22  5 25 12  7  6.0000000  0  8G10G15G16G18G23G26G27G29
  21598731.499   113502109.409 6  88443203.445 6  21598737.079
  23323646.049   122566595.288 6  95506440.058 6  23323652.349
  21893568.535   115051483.211 5  89650507.353 5  21893571.075
  21435975.181   112646806.086 6  87776732.442 6  21435978.171
  20402783.525   107217355.485 6  83545991.631 6  20402786.405
  21305832.871   111962910.380 6  87243826.814 6  21305839.751
  23439556.276   123175708.532 5  95981072.969 5  23439563.036
  22806009.821   119846394.813 6  93386800.262 6  22806015.731
 22  5 25 12  7  7.0000000  0  8G10G15G16G18G23G26G27G29
  21598291.386   113499797.614 6  88441402.048 6  21598297.186
  23323577.801   122566242.421 6  95506165.094 6  23323585.041
  21893341.232   115050290.094 5  89649577.650 5  21893343.842
  21436268.048   112648347.190 6  87777933.299 6  21436271.028
  20402702.326   107216928.104 6  83545658.615 6  20402705.256
  21306009.640   111963841.529 6  87244552.383 6  21306016.790
  23438996.584   123172773.609 5  95978786.014 5  23439005.234
  22806418.015   119848537.414 6  93388469.809 6  22806423.575
 22  5 25 12  7  8.0000000  0  8G10G15G16G18G23G26G27G29
  21597851.875   113497486.226 7  88439600.967 7  21597857.405
  23323511.736   122565890.074 6  95505890.550 6  23323518.436
  21893115.144   115049097.560 6  89648648.402 6  21893116.884
  21436561.027   112649888.391 6  87779134.240 6  21436564.697
  20402621.280   107216501.323 6  83545326.052 6  20402623.720
  21306187.462   111964773.224 7  87245278.380 7  21306194.222
  23438438.488   123169838.653 5  95976499.044 5  23438445.518
  22806826.495   119850680.265 6  93390139.558 6  22806831.225
 22  5 25 12  7  9.0000000  0  8G10G15G16G18G23G26G27G29
  21597412.299   113495175.472 7  88437800.384 7  21597418.019
  23323444.894   122565538.529 6  95505616.614 6  23323451.254
  21892887.844   115047905.819 6  89647719.779 6  21892890.514
  21436854.595   112651429.889 6  87780335.404 6  21436857.705
  20402540.420   107216075.339 6  83544994.118 6  20402542.880
  21306365.299   111965705.667 7  87246004.959 7  21306371.469
  23437879.926   123166903.945 5  95974212.256 5  23437887.416
  22807233.586   119852823.579 6  93391809.673 6  22807238.896
 22  5 25 12  7 10.0000000  0  8G10G15G16G18G23G26G27G29
  21596972.452   113492865.372 7  88436000.303 7  21596978.202
  23323376.832   122565187.788 6  95505343.313 6  23323384.622
  21892661.159   115046714.889 6  89646791.771 6  21892663.439
  21437148.416   112652971.737 6  87781536.839 6  21437151.436
  20402459.380   107215650.183 6  83544662.831 6  20402461.670
  21306543.043   111966638.902 7  87246732.154 7  21306549.103
  23437321.581   123163969.475 5  95971925.661 5  23437329.601
  22807641.564   119854967.403 6  93393480.183 6  22807647.164
 22  5 25 12  7 11.0000000  0  8G10G15G16G18G23G26G27G29
  21596533.433   113490555.812 7  88434200.655 7  21596538.803
  23323311.004   122564837.666 6  95505070.490 6  23323317.924
  21892434.702   115045524.661 6  89645864.320 6  21892437.592
  21437441.547   112654513.805 6  87782738.453 6  21437444.637
  20402378.484   107215225.738 6  83544332.091 6  20402381.424
  21306720.565   111967572.800 7  87247459.865 7  21306727.135
  23436762.876   123161035.137 5  95969639.173 5  23436770.556
  22808049.387   119857111.599 6  93395150.985 6  22808055.237
 22  5 25 12  7 12.0000000  0  8G10G15G16G18G23G26G27G29
  21596093.814   113488246.765 7  88432401.398 7  21596099.094
  23323245.121   122564488.239 6  95504798.216 6  23323251.051
  21892208.565   115044335.102 6  89644937.395 6  21892210.595
  21437734.885   112656056.058 6  87783940.210 6  21437737.915
  20402298.119   107214801.963 6  83544001.880 6  20402300.729
  21306898.624   111968507.338 7  87248188.077 7  21306904.904
  23436204.084   123158100.882 5  95967352.730 5  23436211.924
  22808457.476   119859256.165 6  93396822.067 6  22808463.336
 22  5 25 12  7 13.0000000  0  8G10G15G16G18G23G26G27G29
  21595654.208   113485938.439 7  88430602.708 7  21595660.068
  23323179.047   122564139.661 6  95504526.598 6  23323184.917
  21891981.937   115043146.456 6  89644011.177 6  21891984.657
  21438028.604   112657598.709 6  87785142.275 6  21438031.354
  20402217.730   107214379.100 6  83543672.379 6  20402220.060
  21307076.527   111969442.751 7  87248916.960 7  21307082.957
  23435646.757   123155166.934 5  95965066.557 5  23435653.677
  22808866.366   119861401.290 6  93398493.585 6  22808871.466
 22  5 25 12  7 14.0000000  0  8G10G15G16G18G23G26G27G29
  21595214.694   113483630.401 7  88428804.236 7  21595220.664
  23323113.093   122563791.516 6  95504255.318 6  23323118.383
  21891755.708   115041958.229 5  89643085.291 5  21891758.658
  21438321.735   112659141.317 6  87786344.303 6  21438325.105
  20402136.968   107213956.676 6  83543343.213 6  20402139.548
  21307254.706   111970378.540 6  87249646.149 6  21307261.156
  23435088.595   123152232.860 5  95962780.260 5  23435095.545
  22809274.792   119863546.533 6  93400165.197 6  22809279.582
 22  5 25 12  7 15.0000000  0  8G10G15G16G18G23G26G27G29
  21594775.936   113481322.673 7  88427006.015 7  21594781.636
  23323046.743   122563443.819 6  95503984.386 6  23323052.423
  21891529.700   115040770.502 5  89642159.797 5  21891532.960
  21438615.897   112660683.939 6  87787546.345 6  21438618.567
  20402056.897   107213534.754 6  83543014.444 6  20402059.597
  21307432.096   111971314.805 7  87250375.705 7  21307439.346
  23434529.473   123149298.668 5  95960493.893 5  23434536.953
  22809683.457   119865691.949 6  93401836.950 6  22809688.257
 22  5 25 12  7 16.0000000  0  8G10G15G16G18G23G26G27G29
  21594336.881   113479015.396 7  88425208.136 7  21594342.771
  23322979.490   122563096.691 6  95503713.903 6  23322986.480
  21891303.720   115039583.376 5  89641234.763 5  21891306.330
  21438909.265   112662226.676 6  87788748.471 6  21438912.095
  20401976.849   107213113.436 6  83542686.145 6  20401979.299
  21307610.056   111972251.605 7  87251105.678 7  21307617.536
  23433971.622   123146364.531 5  95958207.542 5  23433978.712
  22810090.962   119867837.641 6  93403508.916 6  22810096.512
 22  5 25 12  7 17.0000000  0  8G10G15G16G18G23G26G27G29
  21593897.844   113476708.811 7  88423410.798 7  21593903.734
  23322914.420   122562750.379 6  95503444.045 6  23322920.250
  21891078.246   115038397.099 5  89640310.383 5  21891081.136
  21439203.008   112663769.772 6  87789950.893 6  21439205.668
  20401896.604   107212692.965 6  83542358.503 6  20401898.854
  21307788.975   111973189.247 6  87251836.305 6  21307795.975
  23433413.906   123143430.639 5  95955921.411 5  23433420.436
  22810499.561   119869983.874 6  93405181.301 6  22810505.271
 22  5 25 12  7 18.0000000  0  8G10G15G16G18G23G26G27G29
  21593459.193   113474402.578 7  88421613.734 7  21593464.723
  23322847.992   122562404.600 6  95503174.606 6  23322854.532
  21890852.547   115037211.347 5  89639386.418 5  21890854.917
  21439497.026   112665312.927 6  87791153.343 6  21439499.316
  20401816.814   107212273.038 6  83542031.295 6  20401819.144
  21307967.789   111974127.376 6  87252567.311 6  21307974.569
  23432855.555   123140496.721 5  95953635.233 5  23432861.875
  22810907.980   119872130.300 6  93406853.836 6  22810913.620
 22  5 25 12  7 19.0000000  0  8G10G15G16G18G23G26G27G29
  21593020.321   113472096.869 7  88419817.087 7  21593025.931
  23322783.171   122562059.454 6  95502905.664 6  23322788.801
  21890626.989   115036026.255 5  89638462.971 5  21890630.009
  21439790.595   112666856.261 6  87792355.942 6  21439793.385
  20401737.159   107211853.804 6  83541704.613 6  20401739.169
  21308146.180   111975066.129 6  87253298.810 6  21308153.110
  23432297.092   123137562.884 5  95951349.128 5  23432303.242
  22811315.899   119874277.080 6  93408526.645 6  22811322.049
 22  5 25 12  7 20.0000000  0  8G10G15G16G18G23G26G27G29
  21592581.593   113469791.973 7  88418021.059 7  21592587.333
  23322717.331   122561715.267 6  95502637.470 6  23322723.141
  21890402.337   115034842.163 5  89637540.311 5  21890404.677
  21440084.301   112668400.094 6  87793558.930 6  21440086.601
  20401657.579   107211435.545 6  83541378.700 6  20401659.639
  21308325.438   111976005.836 7  87254031.048 7  21308331.998
  23431738.360   123134629.456 5  95949063.346 5  23431745.520
  22811725.256   119876424.519 6  93410199.975 6  22811730.776
 22  5 25 12  7 21.0000000  0  8G10G15G16G18G23G26G27G29
  21592143.404   113467487.598 7  88416225.447 7  21592148.924
  23322652.075   122561371.758 6  95502369.801 6  23322657.435
  21890176.746   115033658.722 5  89636618.152 5  21890178.906
  21440378.218   112669944.140 6  87794762.072 6  21440380.558
  20401577.733   107211017.992 6  83541053.336 6  20401580.113
  21308504.231   111976946.207 7  87254763.801 7  21308510.741
  23431179.517   123131696.153 5  95946777.662 5  23431187.767
  22812133.894   119878572.335 6  93411873.589 6  22812139.474
 22  5 25 12  7 22.0000000  0  8G10G15G16G18G23G26G27G29
  21591704.547   113465183.869 7  88414430.336 7  21591710.387
  23322586.657   122561029.023 6  95502102.735 6  23322593.027
  21889951.443   115032476.120 5  89635696.635 5  21889953.673
  21440671.796   112671488.497 6  87795965.465 6  21440674.646
  20401498.788   107210601.242 6  83540728.593 6  20401500.998
  21308683.669   111977887.344 7  87255497.151 7  21308689.919
  23430622.703   123128763.038 5  95944492.136 5  23430629.513
  22812543.804   119880720.651 6  93413547.598 6  22812548.024
 22  5 25 12  7 23.0000000  0  8G10G15G16G18G23G26G27G29
  21591266.619   113462880.504 7  88412635.506 7  21591272.159
  23322521.680   122560686.768 6  95501836.055 6  23322527.490
  21889726.967   115031294.034 6  89634775.531 6  21889728.617
  21440965.431   112673032.886 6  87797168.889 6  21440968.261
  20401419.454   107210185.021 6  83540404.269 6  20401421.664
  21308862.459   111978828.954 7  87256230.875 7  21308869.029
  23430065.362   123125829.901 5  95942206.564 5  23430071.902
  22812952.744   119882869.124 6  93415221.729 6  22812957.154
 22  5 25 12  7 24.0000000  0  8G10G15G16G18G23G26G27G29
  21590828.817   113460577.709 7  88410841.121 7  21590833.897
  23322456.787   122560345.238 6  95501569.925 6  23322462.657
  21889501.769   115030112.665 5  89633854.999 5  21889504.269
  21441260.174   112674577.533 6  87798372.508 6  21441262.304
  20401340.390   107209769.538 6  83540080.522 6  20401342.490
  21309041.939   111979771.277 7  87256965.143 7  21309048.659
  23429505.884   123122896.910 5  95939921.137 5  23429513.204
  22813361.410   119885018.048 6  93416896.210 6  22813365.910
 22  5 25 12  7 25.0000000  0  8G10G15G16G18G23G26G27G29
  21590390.017   113458275.216 7  88409046.977 7  21590395.887
  23322391.351   122560004.125 6  95501304.131 6  23322397.501
  21889277.051   115028931.782 5  89632934.826 5  21889279.681
  21441553.635   112676122.156 6  87799576.110 6  21441556.575
  20401261.071   107209354.539 6  83539757.143 6  20401263.801
  21309221.371   111980714.026 7  87257699.759 7  21309227.811
  23428948.441   123119963.797 5  95937635.586 5  23428955.121
  22813769.988   119887167.124 6  93418570.810 6  22813775.038
 22  5 25 12  7 26.0000000  0  8G10G15G16G18G23G26G27G29
  21589952.140   113455973.509 7  88407253.444 7  21589957.870
  23322325.661   122559663.964 6  95501039.062 6  23322332.981
  21889052.941   115027751.849 5  89632015.393 5  21889055.121
  21441847.765   112677667.256 6  87800780.080 6  21441850.495
  20401182.387   107208940.497 6  83539434.517 6  20401185.047
  21309401.013   111981657.683 6  87258435.073 6  21309407.393
  23428389.292   123117031.077 5  95935350.364 5  23428396.512
  22814178.494   119889316.813 6  93420245.896 6  22814183.994
 22  5 25 12  7 27.0000000  0  8G10G15G16G18G23G26G27G29
  21589514.212   113453672.286 7  88405460.276 7  21589520.182
  23322261.787   122559324.397 6  95500774.473 6  23322268.507
  21888828.561   115026572.531 5  89631096.459 5  21888830.951
  21442141.501   112679212.506 6  87801984.170 6  21442144.531
  20401103.224   107208527.108 6  83539112.390 6  20401106.254
  21309580.789   111982601.941 7  87259170.857 7  21309586.879
  23427830.874   123114098.393 5  95933065.158 5  23427839.154
  22814587.600   119891466.816 6  93421921.208 6  22814593.030
 22  5 25 12  7 28.0000000  0  8G10G15G16G18G23G26G27G29
  21589075.964   113451371.637 7  88403667.565 7  21589081.894
  23322196.468   122558985.557 6  95500510.439 6  23322203.948
  21888604.212   115025393.983 5  89630178.095 5  21888606.242
  21442436.035   112680757.998 6  87803188.456 6  21442438.525
  20401025.542   107208114.449 6  83538790.833 6  20401027.842
  21309760.410   111983546.910 7  87259907.197 7  21309766.900
  23427273.161   123111165.880 5  95930780.086 5  23427280.881
  22814996.241   119893617.244 6  93423596.866 6  22815002.371
 22  5 25 12  7 29.0000000  0  8G10G15G16G18G23G26G27G29
  21588638.890   113449072.008 7  88401875.645 7  21588644.440
  23322133.464   122558647.850 6  95500247.296 6  23322140.234
  21888380.009   115024216.611 5  89629260.654 5  21888382.469
  21442730.045   112682304.199 6  87804393.285 6  21442732.745
  20400947.545   107207702.957 6  83538470.194 6  20400949.115
  21309939.902   111984493.010 7  87260644.417 7  21309947.032
  23426716.285   123108233.975 5  95928495.498 5  23426722.765
  22815406.003   119895768.526 6  93425273.188 6  22815411.873
 22  5 25 12  7 30.0000000  0  8G10G15G16G18G23G26G27G29
  21588200.681   113446772.846 6  88400084.098 6  21588207.061
  23322069.236   122558310.768 6  95499984.642 6  23322075.546
  21888156.067   115023039.857 5  89628343.714 5  21888158.487
  21443024.285   112683850.554 6  87805598.235 6  21443026.895
  20400869.089   107207292.149 6  83538150.081 6  20400871.039
  21310120.248   111985439.707 6  87261382.105 6  21310127.358
  23426156.614   123105302.121 5  95926210.920 5  23426165.314
  22815815.643   119897920.143 6  93426949.765 6  22815820.863
 22  5 25 12  7 31.0000000  0  8G10G15G16G18G23G26G27G29
  21587763.874   113444474.151 7  88398292.905 7  21587769.664
  23322004.098   122557974.308 6  95499722.463 6  23322012.118
  21887932.805   115021863.743 6  89627427.258 6  21887934.785
  21443318.367   112685397.061 6  87806803.298 6  21443321.477
  20400790.571   107206881.958 6  83537830.455 6  20400793.331
  21310301.080   111986387.011 7  87262120.255 7  21310307.250
  23425599.771   123102370.323 5  95923926.416 5  23425607.391
  22816224.916   119900072.045 6  93428626.577 6  22816230.626
 22  5 25 12  7 32.0000000  0  8G10G15G16G18G23G26G27G29
  21587326.495   113442176.252 7  88396502.342 7  21587332.565
  23321940.928   122557638.740 6  95499460.983 6  23321948.048
  21887708.902   115020688.573 5  89626511.548 5  21887710.962
  21443612.589   112686944.016 6  87808008.722 6  21443615.559
  20400712.981   107206472.726 6  83537511.578 6  20400715.461
  21310481.111   111987335.206 7  87262859.114 7  21310487.901
  23425041.647   123099438.900 5  95921642.181 5  23425050.027
  22816634.634   119902224.574 6  93430303.864 6  22816640.264
 22  5 25 12  7 33.0000000  0  8G10G15G16G18G23G26G27G29
  21586889.251   113439878.932 7  88394712.216 7  21586895.471
  23321877.438   122557303.910 6  95499200.079 6  23321883.978
  21887485.554   115019514.153 5  89625596.401 5  21887487.374
  21443907.222   112688491.237 6  87809214.350 6  21443910.182
  20400635.182   107206064.245 6  83537193.281 6  20400637.732
  21310661.742   111988284.138 7  87263598.541 7  21310668.462
  23424484.174   123096507.628 5  95919358.091 5  23424492.114
  22817044.204   119904377.546 6  93431981.494 6  22817049.734
 22  5 25 12  7 34.0000000  0  8G10G15G16G18G23G26G27G29
  21586452.204   113437581.956 7  88392922.376 7  21586458.014
  23321813.984   122556969.547 6  95498939.536 6  23321820.524
  21887262.182   115018340.227 6  89624681.666 6  21887264.252
  21444201.576   112690038.500 6  87810420.009 6  21444204.596
  20400557.515   107205656.286 6  83536875.392 6  20400560.325
  21310842.634   111989233.535 7  87264338.324 7  21310849.054
  23423926.122   123093576.304 5  95917073.939 5  23423933.622
  22817454.164   119906530.692 6  93433659.271 6  22817459.594
 22  5 25 12  7 35.0000000  0  8G10G15G16G18G23G26G27G29
  21586015.257   113435285.409 7  88391132.862 7  21586021.017
  23321750.248   122556635.766 6  95498679.450 6  23321756.748
  21887038.366   115017166.923 6  89623767.410 6  21887040.906
  21444495.810   112691585.861 6  87811625.740 6  21444499.150
  20400479.329   107205248.926 6  83536557.976 6  20400482.889
  21311023.573   111990183.481 7  87265078.544 7  21311029.583
  23423368.535   123090644.985 5  95914789.802 5  23423375.985
  22817863.903   119908684.117 6  93435337.262 6  22817869.483
 22  5 25 12  7 36.0000000  0  8G10G15G16G18G23G26G27G29
  21585577.796   113432988.964 7  88389343.425 7  21585584.326
  23321685.967   122556302.231 6  95498419.552 6  23321693.637
  21886815.419   115015993.869 5  89622853.339 5  21886817.759
  21444790.680   112693132.994 6  87812831.297 6  21444793.470
  20400402.291   107204841.826 6  83536240.753 6  20400405.341
  21311203.833   111991133.645 7  87265818.932 7  21311210.823
  23422810.133   123087713.362 5  95912505.421 5  23422817.793
  22818274.216   119910837.499 6  93437015.210 6  22818279.166
 22  5 25 12  7 37.0000000  0  8G10G15G16G18G23G26G27G29
  21585141.481   113430693.012 7  88387554.382 7  21585147.441
  23321623.451   122555969.316 6  95498160.134 6  23321629.981
  21886591.816   115014821.456 5  89621939.770 5  21886594.526
  21445084.945   112694680.290 6  87814036.982 6  21445088.165
  20400324.906   107204435.389 6  83535924.049 6  20400327.546
  21311384.802   111992084.441 7  87266559.806 7  21311391.612
  23422251.758   123084781.813 5  95910221.099 5  23422260.688
  22818683.826   119912991.170 6  93438693.394 6  22818689.136
 22  5 25 12  7 38.0000000  0  8G10G15G16G18G23G26G27G29
  21584704.177   113428397.661 7  88385765.791 7  21584710.767
  23321560.381   122555637.090 6  95497901.262 6  23321566.601
  21886368.887   115013649.814 5  89621026.802 5  21886371.477
  21445379.934   112696227.862 6  87815242.876 6  21445382.334
  20400247.823   107204029.710 6  83535607.940 6  20400250.493
  21311565.994   111993035.949 7  87267301.241 7  21311572.654
  23421694.872   123081850.442 5  95907936.913 5  23421702.632
  22819094.086   119915145.314 6  93440371.940 6  22819099.226
 22  5 25 12  7 39.0000000  0  8G10G15G16G18G23G26G27G29
  21584267.479   113426103.008 7  88383977.751 7  21584273.899
  23321497.517   122555305.778 6  95497643.090 6  23321503.327
  21886146.291   115012479.036 5  89620114.518 5  21886148.961
  21445674.241   112697775.823 6  87816449.076 6  21445677.281
  20400171.064   107203624.924 6  83535292.515 6  20400173.614
  21311747.185   111993988.299 7  87268043.326 7  21311754.015
  23421136.859   123078919.351 5  95905652.960 5  23421144.759
  22819503.818   119917299.972 6  93442050.899 6  22819508.868
 22  5 25 12  7 40.0000000  0  8G10G15G16G18G23G26G27G29
  21583831.056   113423809.011 7  88382190.227 7  21583837.176
  23321435.391   122554975.222 6  95497385.527 6  23321440.581
  21885923.195   115011309.079 5  89619202.853 5  21885925.945
  21445968.886   112699324.105 6  87817655.534 6  21445971.656
  20400093.256   107203220.954 6  83534977.734 6  20400096.856
  21311928.260   111994941.414 7  87268786.018 7  21311935.320
  23420579.449   123075988.500 5  95903369.200 5  23420586.729
  22819914.237   119919455.156 6  93443730.255 6  22819919.137
 22  5 25 12  7 41.0000000  0  8G10G15G16G18G23G26G27G29
  21583394.819   113421515.606 7  88380403.161 7  21583400.759
  23321371.904   122554645.374 6  95497128.505 6  23321378.034
  21885700.827   115010139.872 5  89618291.791 5  21885703.607
  21446263.390   112700872.636 6  87818862.177 6  21446266.410
  20400017.133   107202817.731 6  83534663.525 6  20400019.723
  21312109.763   111995895.229 7  87269529.246 7  21312116.713
  23420022.429   123073057.828 5  95901085.551 5  23420029.249
  22820323.751   119921610.757 6  93445409.941 6  22820329.261
 22  5 25 12  7 42.0000000  0  8G10G15G16G18G23G26G27G29
  21582958.315   113419222.426 7  88378616.265 7  21582964.405
  23321309.589   122554315.929 6  95496871.792 6  23321315.139
  21885478.899   115008971.054 5  89617381.012 5  21885480.969
  21446558.290   112702421.100 6  87820068.770 6  21446560.580
  20399940.596   107202414.910 6  83534349.647 6  20399943.006
  21312291.821   111996849.430 7  87270272.774 7  21312298.361
  23419464.521   123070126.977 5  95898801.770 5  23419471.191
  22820733.732   119923766.431 6  93447089.680 6  22820739.762
 22  5 25 12  7 43.0000000  0  8G10G15G16G18G23G26G27G29
  21582522.447   113416930.188 7  88376830.107 7  21582528.257
  23321247.056   122553987.519 6  95496615.900 6  23321252.546
  21885256.459   115007803.339 6  89616471.116 6  21885259.069
  21446853.192   112703970.176 6  87821275.844 6  21446855.752
  20399864.065   107202013.198 6  83534036.627 6  20399866.615
  21312473.268   111997804.670 7  87271017.120 7  21312480.098
  23418906.946   123067196.633 5  95896518.408 5  23418913.516
  22821144.507   119925922.879 6  93448770.027 6  22821149.927
 22  5 25 12  7 44.0000000  0  8G10G15G16G18G23G26G27G29
  21582086.288   113414638.426 7  88375044.324 7  21582092.298
  23321185.032   122553659.761 6  95496360.493 6  23321190.132
  21885034.625   115006636.286 6  89615561.713 6  21885036.825
  21447147.832   112705519.397 6  87822483.032 6  21447150.372
  20399787.501   107201612.131 6  83533724.104 6  20399790.461
  21312654.945   111998760.525 7  87271761.935 7  21312661.885
  23418348.646   123064266.375 5  95894235.092 5  23418356.366
  22821554.791   119928079.668 6  93450450.636 6  22821560.321
 22  5 25 12  7 45.0000000  0  8G10G15G16G18G23G26G27G29
  21581650.185   113412347.263 7  88373259.006 7  21581656.335
  23321123.316   122553332.731 6  95496105.674 6  23321128.186
  21884812.131   115005469.965 6  89614652.894 6  21884814.911
  21447442.740   112707068.907 6  87823690.439 6  21447444.950
  20399711.459   107201211.842 6  83533412.190 6  20399714.629
  21312837.153   111999717.092 7  87272507.315 7  21312844.023
  23417790.999   123061336.287 5  95891951.893 5  23417799.099
  22821965.135   119930236.860 6  93452131.571 6  22821970.885
 22  5 25 12  7 46.0000000  0  8G10G15G16G18G23G26G27G29
  21581214.164   113410056.686 7  88371474.143 7  21581220.374
  23321060.393   122553006.406 6  95495851.394 6  23321065.583
  21884590.545   115004304.381 6  89613744.656 6  21884593.295
  21447737.823   112708618.663 6  87824898.033 6  21447740.083
  20399636.226   107200812.280 6  83533100.842 6  20399638.436
  21313019.562   112000674.358 7  87273253.236 7  21313025.952
  23417233.765   123058406.359 5  95889668.840 5  23417241.145
  22822376.355   119932394.492 6  93453812.828 6  22822381.775
 22  5 25 12  7 47.0000000  0  8G10G15G16G18G23G26G27G29
  21580778.425   113407766.400 7  88369689.509 7  21580784.575
  23320998.768   122552680.529 6  95495597.465 6  23321003.678
  21884368.699   115003139.258 6  89612836.768 6  21884371.369
  21448032.027   112710168.398 6  87826105.624 6  21448035.097
  20399559.851   107200413.197 6  83532789.873 6  20399562.381
  21313201.919   112001632.059 7  87273999.496 7  21313208.359
  23416676.259   123055476.334 5  95887385.684 5  23416682.759
  22822786.111   119934552.272 6  93455494.216 6  22822792.171
 22  5 25 12  7 48.0000000  0  8G10G15G16G18G23G26G27G29
  21580342.722   113405476.583 7  88367905.235 7  21580348.862
  23320936.228   122552355.222 6  95495343.983 6  23320941.998
  21884147.059   115001974.772 6  89611929.387 6  21884150.149
  21448327.308   112711718.267 6  87827313.311 6  21448330.168
  20399483.865   107200014.746 6  83532479.385 6  20399486.535
  21313384.085   112002590.346 7  87274746.209 7  21313390.885
  23416118.187   123052546.325 5  95885102.572 5  23416125.317
  22823197.960   119936710.343 6  93457175.826 6  22823202.770
 22  5 25 12  7 49.0000000  0  8G10G15G16G18G23G26G27G29
  21579907.249   113403187.385 7  88366121.448 7  21579913.169
  23320873.940   122552030.709 6  95495091.114 6  23320879.900
  21883925.480   115000811.084 5  89611022.598 5  21883928.630
  21448622.310   112713268.434 6  87828521.231 6  21448625.330
  20399408.165   107199617.083 6  83532169.518 6  20399410.825
  21313566.314   112003549.382 7  87275493.511 7  21313573.214
  23415560.977   123049616.544 5  95882819.630 5  23415568.217
  22823608.496   119938868.875 6  93458857.792 6  22823613.776
 22  5 25 12  7 50.0000000  0  8G10G15G16G18G23G26G27G29
  21579471.630   113400898.826 7  88364338.156 7  21579477.520
  23320812.986   122551706.971 6  95494838.857 6  23320818.096
  21883704.161   114999648.188 5  89610116.455 5  21883707.751
  21448917.668   112714818.935 6  87829729.418 6  21448920.148
  20399332.740   107199220.237 6  83531860.286 6  20399335.440
  21313748.729   112004509.190 7  87276241.401 7  21313755.889
  23415004.305   123046686.976 5  95880536.848 5  23415010.945
  22824019.895   119941027.912 6  93460540.152 6  22824024.745
 22  5 25 12  7 51.0000000  0  8G10G15G16G18G23G26G27G29
  21579036.457   113398610.728 7  88362555.225 7  21579042.317
  23320751.070   122551383.808 6  95494587.037 6  23320756.720
  21883483.669   114998485.889 5  89609210.770 5  21883485.719
  21449212.655   112716369.551 6  87830937.688 6  21449215.075
  20399257.246   107198823.994 6  83531551.533 6  20399259.756
  21313931.884   112005469.546 7  87276989.740 7  21313938.484
  23414446.676   123043757.455 5  95878254.122 5  23414453.606
  22824430.745   119943187.223 6  93462222.732 6  22824435.535
 22  5 25 12  7 52.0000000  0  8G10G15G16G18G23G26G27G29
  21578601.020   113396323.483 7  88360772.961 7  21578607.200
  23320688.836   122551061.664 6  95494336.012 6  23320695.456
  21883262.839   114997324.644 6  89608305.902 6  21883265.029
  21449507.504   112717920.704 6  87832146.377 6  21449510.274
  20399181.638   107198428.789 6  83531243.571 6  20399184.398
  21314114.200   112006430.910 7  87277738.852 7  21314121.450
  23413888.849   123040828.385 5  95875971.725 5  23413896.699
  22824841.167   119945347.217 6  93463905.844 6  22824846.187
 22  5 25 12  7 53.0000000  0  8G10G15G16G18G23G26G27G29
  21578165.560   113394036.122 7  88358990.605 7  21578171.920
  23320629.087   122550739.490 6  95494084.974 6  23320634.117
  21883041.916   114996163.426 6  89607401.061 6  21883044.106
  21449802.865   112719471.427 6  87833354.729 6  21449805.595
  20399107.215   107198033.630 6  83530935.666 6  20399109.525
  21314298.024   112007392.275 7  87278487.962 7  21314304.294
  23413331.694   123037898.769 5  95873688.918 5  23413339.114
  22825252.509   119947506.967 6  93465588.760 6  22825257.509
 22  5 25 12  7 54.0000000  0  8G10G15G16G18G23G26G27G29
  21577730.132   113391749.435 7  88357208.772 7  21577736.582
  23320566.692   122550418.156 6  95493834.589 6  23320573.022
  21882820.729   114995003.052 5  89606496.866 5  21882823.229
  21450097.963   112721022.487 6  87834563.348 6  21450100.643
  20399031.931   107197639.322 6  83530628.411 6  20399034.341
  21314480.978   112008354.442 7  87279237.701 7  21314487.528
  23412773.978   123034969.417 5  95871406.305 5  23412781.138
  22825663.309   119949667.226 6  93467272.077 6  22825668.569
